Site Name,Country/Region,Receiver,Antenna,Radome,Satellite_System,Latitude,Longitude,Height (m),X (m),Y (m),Z (m),Calibration,Networks,Data_Center,IERS DOMES,Clock,Agencies,Last_Data
ABMF00GLP,GP,SEPT POLARX5,TRM57971.00,NONE,GPS+GLO+GAL+BDS+SBAS,16.26230556,-61.52753056,-25,2919786,-5383745,1774604,ROBOT,IGS14 Core / IGS20 / IGS14 / IGS / IGS Multi-GNSS / RTS,IGN,97103M001,INTERNAL,Institut National de l'Information Geographique et,2
ABPO00MDG,MG,SEPT POLARX5,ASH701945G_M,SCIT,GPS+GLO+GAL+BDS+QZSS,-19.01830603,47.22921169,1552.9923,4097216.681,4429119.029,-2065771.368,FIELD,IGS14 Core / IGS20 / IGS14 / IGS / RTS / IGS Multi-GNSS,JPL,33302M001,INTERNAL,Jet Propulsion Laboratory,2
AC2300USA,US,SEPT POLARX5,TRM59800.99,SCIT,GPS+GLO+GAL+BDS+QZSS,60.47509444,-150.8779278,80.301,-2752834.742,-1533597.398,5526823.255,ROBOT,RTS / IGS / IGS Multi-GNSS,CDDIS,49296M001,INTERNAL,UNAVCO,2
AC2400USA,US,SEPT POLARX5,TRM159800.00,SCIT,GPS+GLO+GAL+BDS+QZSS,58.68157222,-156.6527556,36.4,-3051338.757,-1317097.822,5425614.219,ROBOT,RTS / IGS / IGS Multi-GNSS,CDDIS,49239M001,INTERNAL,UNAVCO,2
ACRG00GHA,GH,JAVAD TRE_3S,SEPCHOKE_B3E6,NONE,GPS+GLO+GAL+BDS+IRNSS+SBAS,5.641472222,-0.207111111,83.4,6347491.377,-22944.8986,622822.4766,ROBOT,IGS / IGS Multi-GNSS / RTS,CDDIS,32904M001,INTERNAL,GeoForschungsZentrum,2
ACSO00USA,US,SEPT POLARX5,TRM59800.80,SCIT,GPS+GLO+GAL+BDS,40.23235278,-82.981525,249.387,595828.9368,-4839735.32,4097876.722,COPIED,RTS / IGS / IGS Multi-GNSS,CDDIS,49297M001,INTERNAL,UNAVCO,2
ADIS00ETH,ET,LEICA GR50,LEIAR20,LEIM,GPS+GLO+GAL+BDS+SBAS,9.035135728,38.76630398,2439.149,4913652.761,3945922.67,995383.3331,ROBOT,IGS20 / IGS14 / IGS Multi-GNSS / RTS / IGS,IGN,31502M001,,Addis Ababa University,2
AGGO00ARG,AR,SEPT POLARX5TR,LEIAR25.R4,LEIT,GPS+GLO+GAL+BDS+SBAS,-34.87370833,-58.13986111,42.085,2765120.9,-4449250.25,-3626405.6,ROBOT,IGS / IGS Multi-GNSS / RTS,BKG,41596M001,EXTERNAL CESIUM 1,Bundesamt fuer Kartographie und Geodaesie+ Argentinean-German Geodetic Observatory,2
AIRA00JPN,JP,TRIMBLE ALLOY,TRM59800.00,SCIS,GPS+GLO+GAL+QZSS,31.82406111,130.5995917,314.64,-3530185.489,4118797.337,3344036.931,ROBOT,IGS08 / IGS20 / IGS / IGS Multi-GNSS / RTS,CDDIS,21742S001,INTERNAL,Geospatial Information Authority of Japan,2
AJAC00FRA,FR,LEICA GR50,TRM115000.00,NONE,GPS+GLO+GAL+BDS+QZSS+SBAS,41.92745,8.762608333,98.8,4696990,723994,4239678,ROBOT,IGS20 / IGS14 / IGS / RTS / IGS Multi-GNSS,BKG,10077M005,INTERNAL,Institut National de l'Information Geographique et,2
ALBH00CAN,CA,SEPT POLARX5,TRM59800.00,SCIS,GPS+GLO+GAL,48.3898,-123.4874,32,-2341332.884,-3539049.509,4745791.36,ROBOT,IGS14 Core / IGS08 / IGS20 / IGS14 / IGS / RTS / IGS Multi-GNSS,PGC,40129M003,EXTERNAL H-MASER,Geological Survey of Canada,2
ALGO00CAN,CA,SEPT POLARX5,AOAD/M_T,NONE,GPS+GLO+GAL,45.9588,-78.0714,202,918129.4,-4346071.2,4561977.8,ROBOT,IGS08 / IGS20 / IGS14 / IGS / RTS / IGS Multi-GNSS,CDDIS,40104M002,INTERNAL,Natural Resources Canada,2
ALIC00AUS,AU,SEPT POLARX5,LEIAR25.R3,NONE,GPS+GLO+GAL+BDS+QZSS,-23.67011111,133.8855222,603.2,-4052052.735,4212835.983,-2545104.585,ROBOT,IGS08 Core / IGS14 Core / IGS08 / IGS20 / IGS14 / IGS / RTS / IGS Multi-GNSS,GA,50137M001,INTERNAL,Geoscience Australia,2
ALRT00CAN,CA,ASHTECH UZ-12,ASH701945D_M,NONE,GPS,82.49429444,-62.34046111,78.11,388042.75,-740382.4,6302001.85,ROBOT,IGS08 / IGS20 / IGS14 / IGS,CDDIS,40162M001,INTERNAL,NRCan+ Geodetic Survey Division,
AMC400USA,US,SEPT POLARX5TR,TPSCR.G5C,NONE,GPS+GLO+GAL+BDS,38.803125,-104.5245972,1911.3941,-1248596.405,-4819428.21,3976505.93,ROBOT,IGS / IGS Multi-GNSS,JPL,40472S005,EXTERNAL H-MASER,U.S. Naval Observatory+ Jet Propulsion Laboratory,2
ANK200TUR,Turkey,TRIMBLE NETR9,TRM115000.00,NONE,GPS+GLO+GAL+BDS,39.84279722,32.77534722,1294.3,4124040.177,2655251.841,4065428.467,ROBOT,IGS / IGS Multi-GNSS,IGN,20818M001,INTERNAL,General Command of Mapping Turkey,2
ANMG00MYS,MY,TRIMBLE NETR9,JAVRINGANT_DM,SCIS,GPS+GLO+GAL+BDS+QZSS,2.784648333,101.5066022,15.002,-1270826.87,6242631.446,307792.439,ROBOT,IGS / IGS Multi-GNSS,JAXA,22720M001,INTERNAL,Japan Aerospace Exploration Agency,2
ANTC00CHL,CL,SEPT POLARX5,ASH700936D_M,SNOW,GPS+GLO+GAL,-37.33870278,-71.53205,745.4,1608539,-4816370,-3847799,ROBOT,IGS08 / IGS20 / IGS,SIO,41713S001,INTERNAL,National Seismological Center of the U. of Chile,27
ANTF00CHL,CL,STONEX SC2200,STXSA1500,STXG,GPS+GLO+GAL+BDS+SBAS,-23.70153056,-70.42007778,68.4,1958240.723,-5505483.304,-2548076.547,ROBOT,IGS / RTS / IGS Multi-GNSS,CDDIS,41780M001,INTERNAL,Universidad de Santiago de Chile,2
AREG00PER,PE,SEPT POLARX5,TRM59800.00,NONE,GPS+GLO+GAL+BDS+SBAS,-16.46542332,-71.49290414,2489.337,1942816.365,-5804077.14,-1796884.438,ROBOT,IGS Multi-GNSS / IGS / RTS,IGN,42202M008,EXTERNAL RUBIDIUM,Centre National d'Etudes Spatiales,2
AREQ00PER,PE,SEPT POLARX5,JAVRINGANT_DM,NONE,GPS+GLO+GAL+BDS,-16.465517,-71.49279667,2488.9226,1942826.192,-5804070.331,-1796894.267,ROBOT,IGS14 Core / IGS20 / IGS14 / IGS / IGS Multi-GNSS,JPL,42202M005,EXTERNAL QUARTZ,Jet Propulsion Laboratory,2
ARHT00ATA,AQ,JAVAD TRE_3 DELTA,JAVRINGANT_DM,SCIS,GPS+GLO+GAL+BDS+QZSS+IRNSS,-77.82943611,166.6636528,135.328,-1312626.536,311171.129,-6213081.915,ROBOT,IGS / IGS Multi-GNSS / RTS,JPL,66001M005,INTERNAL,Jet Propulsion Laboratory,2
ARTU00RUS,Russian Federation,JAVAD TRE_G3TH DELTA,ASH700936D_M,DOME,GPS+GLO,56.42982222,58.56045278,247.511,1843956.968,3016202.97,5291261.66,,IGS08 Core / IGS14 Core / IGS08 / IGS20 / IGS14 / IGS,CDDIS,12362M001,INTERNAL,RDAAC,
ARUC00ARM,AM,SEPT POLARX5,ASH701945C_M,SCIS,GPS+GLO+GAL+BDS+QZSS,40.28572222,44.08558333,1222,3500416.782,3390432.684,4103027.585,ROBOT,IGS20 / IGS / IGS Multi-GNSS / RTS,JPL,12312M002,INTERNAL,Jet Propulsion Laboratory,2
ASCG00SHN,SH,TRIMBLE ALLOY,TRM59800.00,NONE,GPS+GLO+GAL+BDS+SBAS,-7.916280556,-14.33266389,38,6121151.578,-1563978.904,-872615.417,ROBOT,IGS20 / IGS / IGS Multi-GNSS / RTS,IGN,30602M004,INTERNAL,Centre National d'Etudes Spatiales,2
ASPA00USA,US,SEPT POLARX5,TRM55971.00,NONE,GPS+GLO+GAL,-14.32609444,-170.7224333,53.7,-6100260.096,-996503.51,-1567977.812,ROBOT,IGS08 Core / IGS08 / IGS20 / IGS,https://geodesy.noaa.gov/corsdata/,50503S006,INTERNAL,National Geodetic Survey,2
AUCK00NZL,NZ,TRIMBLE ALLOY,TRM115000.00,NONE,GPS+GLO+GAL+BDS+QZSS,-36.6028,174.8344,132.711,-5105681,461564,-3782181.7,ROBOT,IGS08 Core / IGS14 Core / IGS08 / IGS / IGS20 / IGS14 / RTS / IGS Multi-GNSS,CDDIS,50209M001,INTERNAL,GNS Science,2
BADG00RUS,RU,JAVAD TRE_3 DELTA,JAVRINGANT_DM,JVDM,GPS+GLO+GAL,51.76970556,102.2349806,811.4,-838281.513,3865777.334,4987624.632,ROBOT,IGS14 Core / IGS / IGS20 / IGS14 / IGS Multi-GNSS,SIO,12338M002,EXTERNAL H-MASER CH1-80,Institute of Applied Astronomy RAS,2
BAIE00CAN,CA,TPS NET-G5,TPSCR.G3,NONE,GPS+GLO,49.186825,-68.26332778,27.5,1546823.34,-3879765.13,4804185.05,ROBOT,IGS / IGS20 / RTS,CDDIS,40151M001,INTERNAL,Natural Resources Canada,2
BAKE00CAN,CA,TPS NET-G3A,TPSCR.G3,NONE,GPS+GLO,64.31781944,-96.00234444,4.4,-289833.93,-2756501.06,5725162.22,ROBOT,IGS08 / IGS / IGS20 / RTS,CDDIS,40152M001,INTERNAL,Natural Resources Canada,2
BAKO00IDN,ID,LEICA GR50,LEIAR20,LEIM,GPS+GLO+GAL+BDS+QZSS+SBAS,-6.49,106.85,158.18,-1836969.054,6065617.126,-716257.839,ROBOT,IGS / IGS20 / IGS Multi-GNSS,Scripps Orbit and Permanent Array Center,23101M002,EXTERNAL,National Coordination Agency for Surveys and Mappi,2
BAMF00CAN,CA,SEPT POLARX5,SEPCHOKE_B3E6,SPKE,GPS+GLO+GAL+BDS,48.83531667,-125.1350889,11.1,-2420721.2,-3439856.061,4778532.675,ROBOT,IGS / IGS Multi-GNSS,PGC,40190M001,INTERNAL CLOCK STEERING,Geological Survey of Canada,2
BARH00USA,US,LEICA GR30,LEIAR10,NONE,GPS+GLO,44.39504722,-68.22169167,6.8,1693644.846,-4239067.57,4439567.239,ROBOT,IGS08 / IGS / IGS20 / IGS14,https://geodesy.noaa.gov/corsdata/,49927S001,INTERNAL,National Geodetic Survey,2
BAUT00DEU,DE,JAVAD TRE_3 DELTA,LEIAR25.R3,LEIT,GPS+GLO+GAL+BDS+SBAS,51.19234444,14.52173333,211.8,3877545.5,1004370.9,4947148.1,ROBOT,RTS / IGS / IGS Multi-GNSS,BKG,14102M001,INTERNAL,Bundesamt fuer Kartographie und Geodaesie,2
BELE00BRA,BR,TRIMBLE NETR9,TRM115000.00,NONE,GPS+GLO+GAL+BDS,-1.408794444,-48.46254722,9.08,4228139.05,-4772752.08,-155761.38,ROBOT,IGS / IGS Multi-GNSS / RTS,JPL,41622M001,INTERNAL,Instituto Brasileiro de Geografia e Estatística,2
BHR300BHR,BH,NOV OEM6,TPSCR.G5,TPSH,GPS,26.20914167,50.60814444,-13.9,3633910.66,4425277.759,2799862.907,ROBOT,IGS,CDDIS,24901S002,EXTERNAL CESIUM /RCVR1,National Geospatial-Intelligence Agency,3
BHR400BHR,BH,NOV OEM6,TPSCR.G5,TPSH,GPS,26.20914167,50.60814444,-13.9,3633910.66,4425277.759,2799862.907,ROBOT,IGS20 / IGS,CDDIS,24901S002,EXTERNAL CESIUM /RCVR2,National Geospatial-Intelligence Agency,3
BIK000KGZ,KG,SEPT POLARX5,JAV_RINGANT_G3T,NONE,GPS+GLO+GAL+BDS+QZSS+IRNSS+SBAS,42.85419444,74.53319444,749.2,1249005.546,4513917.346,4316147.925,CHAMBER,IGS Multi-GNSS / IGS / RTS,CDDIS,12358M003,INTERNAL,GeoForschungsZentrum,2
BILL00USA,US,SEPT POLARX5,TRM59800.99,SCIT,GPS+GLO+GAL+BDS+QZSS+SBAS,33.57824167,-117.0646,470.06,-2420420.501,-4737131.551,3507827.665,ROBOT,IGS / IGS Multi-GNSS / RTS,CDDIS,49916M001,INTERNAL,UNAVCO,2
BJCO00BEN,BJ,TRIMBLE NETR5,TRM59800.00,NONE,GPS+GLO,6.384663889,2.450022222,30.7,6333076.505,270973.437,704551.984,ROBOT,IGS14 Core / IGS / IGS20 / IGS14,https://geodesy.noaa.gov/corsdata/,32701M001,INTERNAL,Institut Geographique National-Benin,
BJFS00CHN,CN,TRIMBLE NETR9,TRM59900.00,SCIS,GPS+GLO,39.608625,115.8924611,87.413,-2148743.808,4426641.281,4044655.993,ROBOT,IGS08 Core / IGS08 / IGS / IGS20 / IGS14,IGN,21601M001,EXTERNAL RUBIDIUM,Chinese Academy of Surveying & Mapping,2
BJNM00CHN,CN,SEPT POLARX3ETR,NOV702GG,NONE,GPS+GLO,40.245325,116.2241278,118.6,-2154287.413,4373440.047,4098885.628,ROBOT,IGS / IGS14,CDDIS,21616M001,EXTERNAL HYDROGEN MASER,National Institute of Metrology,
BLYT00USA,US,SEPT POLARX5,TWIVC6150,SCIS,GPS+GLO+GAL+SBAS,33.61041389,-114.71485,85.9,-2223206.72,-4830299.8,3510587.59,ROBOT,IGS,CDDIS,40479M001,INTERNAL,USGS,3
BNOA00IDN,ID,TRIMBLE NETR9,TRM59900.00,SCIS,GPS,-8.7465,115.2099167,39.056,-2685309.038,5704009.251,-963466.461,ROBOT,IGS,SIO,23116M001,INTERNAL,Pacific GPS Facility,
BOAV00BRA,BR,TRIMBLE NETR9,TRM115000.00,NONE,GPS+GLO+GAL+BDS,2.845180556,-60.70111389,69.48,3117452.21,-5555487.82,314480.74,ROBOT,IGS20 / IGS / IGS Multi-GNSS / RTS,CDDIS,41636M001,INTERNAL,Instituto Brasileiro de Geografia e Estatística,2
BOGI00POL,PL,JAVAD TRE_G3T DELTA,TPSCR.G5,TPSH,GPS+GLO+GAL,52.47498889,21.03521111,139.9,3633815.7,1397453.9,5035280.8,ROBOT,IGS / IGS Multi-GNSS / RTS,BEV,12207M003,EXTERNAL RUBIDIUM,Institute of Geodesy and Cartography,2
BOGT00COL,CO,JAVAD TRE_3 DELTA,JAVRINGANT_DM,NONE,GPS+GLO+GAL+BDS,4.640073083,-74.08093956,2576.7782,1744399.04,-6116037.558,512731.7532,ROBOT,IGS08 Core / IGS08 / IGS / RTS / IGS Multi-GNSS,JPL,41901M001,INTERNAL,Jet Propulsion Laboratory,2
BOR100POL,PL,TRIMBLE NETR9,TRM59800.00,NONE,GPS+GLO+GAL+BDS+QZSS+SBAS,52.27695556,17.07345833,124.9,3738358.833,1148173.963,5021816.113,ROBOT,IGS08 / IGS / IGS20 / IGS14 / RTS / IGS Multi-GNSS,BKG,12205M002,EXTERNAL H-MASER,SRC PAS Borowiec Observatory,2
BRAZ00BRA,BR,TRIMBLE NETR9,TRM57971.00,NONE,GPS+GLO+GAL,-15.9474,-47.8778,1106.0413,4115014.113,-4550641.523,-1741444.098,ROBOT,IGS08 Core / IGS14 Core / IGS08 / IGS / IGS20 / IGS14 / RTS / IGS Multi-GNSS,CDDIS,41606M001,INTERNAL,Instituto Brasileiro de Geografia e Estatística,2
BREW00USA,United States of America,SEPT POLARX5TR,ASH701945C_M,SCIT,GPS+GLO+GAL+BDS+QZSS,48.13152403,-119.6826335,238.6273,-2112007.14,-3705351.842,4726827.161,FIELD,IGS08 / IGS / IGS14 / IGS20 / IGS Multi-GNSS / RTS,JPL,40473M001,EXTERNAL H-MASER,Jet Propulsion Laboratory,2
BRFT00BRA,BR,SEPT POLARX5,LEIAT504,NONE,GPS+GLO+GAL,-3.877447222,-38.42553611,21.7,4985393.532,-3954993.417,-428426.704,ROBOT,IGS08 Core / IGS14 Core / IGS08 / IGS / IGS14 / IGS20,https://geodesy.noaa.gov/corsdata/,41602M002,INTERNAL,National Geodetic Survey,2
BRMG00DEU,DE,JAVAD TRE_3 DELTA,LEIAR25.R4,LEIT,GPS+GLO+GAL+BDS+SBAS,47.90773889,7.632877778,261.6,4245557.1,568958.1,4710200,ROBOT,IGS / IGS Multi-GNSS / RTS,BKG,10918M001,INTERNAL,Bundesamt fuer Kartographie und Geodaesie,2
BRST00FRA,FR,TRIMBLE ALLOY,TRM57971.00,NONE,GPS+GLO+GAL+BDS+SBAS,48.38049722,-4.4966,65.5,4231162,-332747,4745131,ROBOT,IGS08 / IGS / IGS14 / IGS20 / IGS Multi-GNSS / RTS,BKG,10004M004,INTERNAL,Institut National de l'Information Geographique et,2
BRUN00BRN,BN,TRIMBLE NETR9,JAVRINGANT_DM,SCIS,GPS+GLO+GAL+BDS+QZSS,4.971177778,114.9523611,90.669,-2680694.374,5761268.529,549016.773,ROBOT,IGS / IGS Multi-GNSS,JAXA,22501M001,INTERNAL,Japan Aerospace Exploration Agency,
BRUX00BEL,BE,SEPT POLARX5TR,JAVRINGANT_DM,SCIS,GPS+GLO+GAL+BDS+QZSS+IRNSS+SBAS,50.79806389,4.358563889,158.3,4027881.628,306998.537,4919498.984,ROBOT,IGS / IGS14 / IGS20 / IGS Multi-GNSS / RTS,ROB,13101M010,EXTERNAL IMASER 3000,Royal Observatory of Belgium,2
BSHM00ISR,IL,SEPT POLARX5,TRM59800.00,SCIS,GPS+GLO+GAL+BDS+QZSS+IRNSS,32.779,35.02,225.1,4396111.175,3080477.642,3433499.462,ROBOT,IGS / IGS14 / IGS20 / IGS Multi-GNSS / RTS,JPL,20705M001,INTERNAL,Jet Propulsion Laboratory,2
BTNG00IDN,ID,TRIMBLE NETR9,TRM59900.00,SCIS,GPS,1.438922222,125.1904306,74.993,-3674585.766,5210904.565,159093.409,ROBOT,IGS,SIO,23105M002,INTERNAL,Pacific GPS Facility,
BUCU00ROU,RO,LEICA GR50,LEIAR25.R4,LEIT,GPS+GLO+GAL+BDS+SBAS,44.46394444,26.12573889,143.2,4093760.994,2007793.667,4445129.862,ROBOT,IGS08 / IGS / IGS14 / IGS20 / IGS Multi-GNSS / RTS,BKG,11401M001,INTERNAL,TU of Civil Engineering Bucharest,2
BZR200ITA,IT,LEICA GR30,LEIAR25.R4,LEIT,GPS+GLO+GAL+BDS,46.49578611,11.33823611,331.2,4312893.06,864794.52,4603598.27,ROBOT,IGS / IGS Multi-GNSS / RTS,BKG,12751M003,INTERNAL,AUTONOME PROVINZ BOZEN - SÜDTIROL,2
CAGS00CAN,CA,TRIMBLE NETR8,TRM59800.00,NONE,GPS,45.585,-75.8073,235,1096349.16,-4335060.66,4533255.22,ROBOT,IGS,CDDIS,40147M001,INTERNAL,NRCan+ Geodetic Survey Division,4
CAS100ATA,AQ,TRIMBLE ALLOY,LEIAR25.R3,LEIT,GPS+GLO+GAL+BDS+QZSS,-66.2834,110.5197,22.6,-901776.221,2409383.497,-5816748.487,ROBOT,IGS08 Core / IGS08 / IGS14 Core / IGS / IGS14 / IGS20 / IGS Multi-GNSS / RTS,GA,66011M001,INTERNAL,Geoscience Australia,2
CCJ200JPN,JP,TRIMBLE ALLOY,TRM59800.00,SCIS,GPS+GLO+GAL+QZSS,27.06753056,142.1950278,104.214,-4490605.401,3483894.751,2884928.222,ROBOT,IGS / IGS20 / IGS Multi-GNSS / RTS,CDDIS,21732M002,INTERNAL,Geospatial Information Authority of Japan,2
CEBR00ESP,ES,SEPT POLARX5TR,SEPCHOKE_B3E6,NONE,GPS+GLO+GAL+BDS+SBAS,40.45343056,-4.367852778,775.8,4846664.918,-370195.2,4116929.526,ROBOT,IGS20 / IGS Multi-GNSS / IGS / RTS,CDDIS,13408M001,EXTERNAL H-MASER,ESA/ESOC,2
CEDU00AUS,AU,TRIMBLE ALLOY,LEIAR25.R4,NONE,GPS+GLO+GAL+BDS+QZSS,-31.86665833,133.8098333,144.7,-3753473.193,3912741.028,-3347959.695,ROBOT,IGS08 Core / IGS08 / IGS / IGS14 / IGS20 / RTS / IGS Multi-GNSS,GA,50138M001,INTERNAL,Geoscience Australia,2
CGGN00NGA,NG,JAVAD TRE_G3TH DELTA,ASH701945B_M,NONE,GPS+GLO,10.12309481,9.118311528,916.6953,6201032.527,995277.2635,1113815.563,COPIED,IGS,JPL,33812M001,INTERNAL,Jet Propulsion Laboratory,
CHAN00CHN,CN,ASHTECH UZ-12,ASH701945C_M,NONE,GPS,43.7905,125.4433,268.3,-2674377,3757198,4391503,ROBOT,IGS / IGS14 / IGS20,CDDIS,21611M002,EXTERNAL H-MASER,Changchun Observatory+NAOC+CAS,2
CHIL00USA,US,TPS NET-G3A,TPSCR.G3,SCPL,GPS+GLO,34.33342222,-118.0259972,1567.51,-2478003.12,-4655349.22,3577932.2,,IGS / RTS,CDDIS,40484M001,INTERNAL,USGS,2
CHOF00JPN,JP,JAVAD TRE_G3TH DELTA,TRM57971.00,NONE,GPS+GLO+GAL+QZSS+IRNSS+SBAS,35.67454444,139.5310569,93.9,-3946216.71,3366689.83,3698971.69,ROBOT,IGS Multi-GNSS / IGS / RTS,BKG,21788M001,INTERNAL,DLR German Space Operations Center,2
CHPG00BRA,BR,TRIMBLE ALLOY,TRM59800.00,NONE,GPS+GLO+GAL+BDS+SBAS,-22.6822731,-45.0023756,566.25,4163476.669,-4163821.936,-2444511.175,ROBOT,IGS Multi-GNSS / IGS / RTS,IGN,41609M004,INTERNAL,Centre National d'Etudes Spatiales,2
CHPI00BRA,BR,SEPT POLARX5,TPSCR.G3,NONE,GPS+GLO+GAL+BDS,-22.68714444,-44.98515833,617.4176,4164613.89,-4162456.91,-2445028.76,ROBOT,IGS14 Core / IGS / IGS14 / IGS20 / RTS / IGS Multi-GNSS,JPL,41609M003,INTERNAL,Jet Propulsion Laboratory,2
CHTI00NZL,NZ,TRIMBLE ALLOY,TRM115000.00,NONE,GPS+GLO+GAL+BDS+QZSS,-43.735475,-176.6171139,75.7,-4607855.9,-272375.8,-4386954.5,ROBOT,IGS14 Core / IGS / IGS14 / IGS20 / RTS / IGS Multi-GNSS,CDDIS,50242M001,INTERNAL,GNS Science,2
CHUM00KAZ,KZ,TRIMBLE NETRS,AOAD/M_T,NONE,GPS,42.99850117,74.7510995,716.3321,1228950.716,4508079.93,4327868.505,ROBOT,IGS14 Core / IGS08 / IGS / IGS14 / IGS20,JPL,25601M001,INTERNAL,Jet Propulsion Laboratory,2
CHUR00CAN,CA,TPS NET-G3A,ASH701945E_M,NONE,GPS+GLO,58.7591,-94.0887,-18.9,-236438.7,-3307616.7,5430049.1,ROBOT,IGS08 Core / IGS14 Core / IGS08 / IGS / IGS14 / IGS20 / RTS,CDDIS,40128M002,EXTERNAL RUBIDIUM,Natural Resources Canada,2
CHWK00CAN,CA,SEPT POLARX5,SEPCHOKE_B3E6,SPKE,GPS+GLO+GAL+BDS,49.1566,-122.0084,170,-2215259.73,-3543996.83,4802098.77,ROBOT,IGS / IGS Multi-GNSS,PGC,40142M001,INTERNAL CLOCK STEERING,Geological Survey of Canada,2
CIBG00IDN,ID,TRIMBLE ALLOY,LEIAR25.R4,NONE,GPS+GLO+GAL+BDS+QZSS+IRNSS+SBAS,-6.490364786,106.8491735,169.1334,-1837002.63,6065627.36,-716183.2715,ROBOT,IGS / IGS Multi-GNSS / RTS,IGN,23101M005,INTERNAL,Centre National d'Etudes Spatiales,2
CIT100USA,US,TRIMBLE NETR9,TRM57971.00,NONE,GPS+GLO+SBAS,34.13670833,-118.1272861,215.35,-2491490.262,-4660803.232,3559129.001,ROBOT,IGS / RTS,CDDIS,40400S201,INTERNAL,USGS,3
CKIS00COK,CK,TRIMBLE NETR9,JAVRINGANT_DM,NONE,GPS+GLO+GAL+BDS+QZSS,-21.20093611,-159.8006167,18.4,-5583182.138,-2054143.611,-2292166.757,ROBOT,IGS14 Core / IGS / IGS14 / IGS20 / IGS Multi-GNSS / RTS,GA,50213M003,INTERNAL,Geoscience Australia,52
CKSV00TWN,TW,TRIMBLE ALLOY,TPSCR.G3,TPSH,GPS+GLO+GAL+BDS+QZSS+SBAS,22.99885278,120.2200083,59.6,-2956619.19,5075902.172,2476625.546,ROBOT,IGS20 / IGS / IGS Multi-GNSS,GA (ftp.ga.gov.au),23606M002,INTERNAL,National Land Surveying and Mapping Center,3
CMP900USA,US,SEPT POLARX5,TWIVC6150,SCIS,GPS+GLO+GAL+SBAS,34.35318056,-118.411425,1137.99,-2508506.154,-4637174.796,3579499.936,ROBOT,IGS / RTS,CDDIS,49905M003,INTERNAL,USGS,3
CMUM00THA,TH,TRIMBLE NETR9,JAV_GRANT-G3T,NONE,GPS+GLO+GAL+BDS+QZSS,18.760875,98.93237778,308.962,-938078.387,5968373.965,2038404.323,ROBOT,IGS / IGS Multi-GNSS,JAXA,21908M001,INTERNAL,Japan Aerospace Exploration Agency,2
CNMR00USA,US,TRIMBLE NETR9,TRM57971.00,NONE,GPS+GLO+GAL,15.22969722,145.7430917,64.4,-5087757.849,3465028.937,1664653.754,ROBOT,IGS14 Core / IGS / IGS14 / IGS20,https://geodesy.noaa.gov/corsdata/,50512M001,INTERNAL,National Geodetic Survey,2
COCO00AUS,AU,SEPT POLARX5,LEIAR25.R4,NONE,GPS+GLO+GAL+BDS+QZSS+IRNSS,-12.18833889,96.833975,-35.3,-741949.8528,6190961.663,-1337768.733,ROBOT,IGS08 Core / IGS14 Core / IGS08 / IGS / IGS14 / IGS20 / RTS / IGS Multi-GNSS,GA,50127M001,INTERNAL,Geoscience Australia,2
CORD00ARG,AR,SEPT POLARX5,TPSCR.G3,NONE,GPS+GLO+GAL+BDS,-31.52843558,-64.47004825,747.0654,2345503.945,-4910842.96,-3316365.547,ROBOT,IGS / IGS Multi-GNSS / RTS,JPL,41511M001,INTERNAL,Jet Propulsion Laboratory,2
COSO00USA,US,SEPT POLARX5,TWIVC6150,SCIS,GPS+GLO+GAL+SBAS,35.98234444,-117.8088889,1455.16,-2411148.286,-4571430.232,3727461.45,ROBOT,IGS / RTS,CDDIS,40469M001,INTERNAL,USGS,2
COTE00ATA,AQ,TRIMBLE NETR9,TRM59800.00,SCIS,GPS+GLO,-77.8059,161.9978,1878.1,-1285757.417,417822.4915,-6214230.847,ROBOT,IGS,CDDIS,66096M001,INTERNAL,UNAVCO,2
COYQ00CHL,CL,TRIMBLE NETR9,ASH700936D_M,SNOW,GPS,-45.5143,-71.8921,476,1391587,-4255574,-4527926,ROBOT,IGS08 / IGS / IGS20,SIO,41715S001,INTERNAL,National Seismological Center of the U. of Chile,
CPNM00THA,TH,TRIMBLE NETR9,JAVRINGANT_DM,SCIS,GPS+GLO+GAL+BDS+QZSS,10.72465,99.37437778,9.143,-1020874.496,6183763.086,1179096.215,ROBOT,IGS / IGS Multi-GNSS,JAXA,21907M001,INTERNAL,Japan Aerospace Exploration Agency,3
CPVG00CPV,CV,TRIMBLE ALLOY,TRM59800.00,NONE,GPS+GLO+GAL+BDS+SBAS,16.73206201,-22.93493304,94.089,5626883.427,-2380932.51,1824483.875,ROBOT,IGS20 / IGS Multi-GNSS / IGS / RTS,IGN,39601M001,INTERNAL,Centre National d'Etudes Spatiales,2
CRFP00USA,US,TRIMBLE NETR9,TRM57971.00,NONE,GPS+GLO+SBAS,34.03905278,-117.0996833,688.82,-2410446.797,-4710490.388,3550422.495,ROBOT,IGS / RTS,CDDIS,40481M001,INTERNAL,USGS,3
CRO100VIR,VI,SEPT POLARX5TR,JAVRINGANT_DM,SCIS,GPS+GLO+GAL+BDS,17.75689947,-64.58431863,-31.4974,2607771.494,-5488076.997,1932768.06,ROBOT,IGS20 / IGS08 Core / IGS14 Core / IGS08 / IGS / IGS14 / RTS / IGS Multi-GNSS,JPL,43201M001,EXTERNAL H-MASER,Jet Propulsion Laboratory,2
CUIB00BRA,BR,SEPT POLARX5S,SEPCHOKE_B3E6,SPKE,GPS+GLO+GAL+BDS+SBAS,-15.55526111,-56.06986389,237.4,3430711.4,-5099641.5,-1699432.9,ROBOT,IGS / RTS / IGS Multi-GNSS,https://geoftp.ibge.gov.br/informacoes_sobre_,41603M001,INTERNAL,Instituto Brasileiro de Geografia e Estatística,2
CUSV00THA,TH,JAVAD TRE_3 DELTA,JAVRINGANT_DM,NONE,GPS+GLO+GAL+BDS+QZSS,13.73591389,100.5339083,76.06,-1132913.768,6092530.566,1504633.519,ROBOT,IGS20 / IGS / IGS Multi-GNSS / RTS,JPL,21904S001,INTERNAL,Jet Propulsion Laboratory,2
CUT000AUS,AU,TRIMBLE NETR9,TRM59800.00,SCIS,GPS+GLO+GAL+BDS+QZSS+SBAS,-32.00388889,115.8948,24,-2364337.27,4870285.562,-3360809.84,ROBOT,IGS Multi-GNSS / IGS / RTS,CDDIS,59945M001,INTERNAL,Curtin University,34
CUUT00THA,TH,TRIMBLE NETR9,TRM57971.00,NONE,GPS+GLO+GAL+BDS+QZSS+SBAS,13.7359912,100.5339348,74.296,-1132915.824,6092526.351,1504641.505,ROBOT,IGS / IGS Multi-GNSS / RTS,CDDIS,21904S002,INTERNAL,Chulalongkorn University,
CYNE00GUF,GF,SEPT POLARX5,TRM115000.00,NONE,GPS+GLO+GAL+BDS+SBAS,4.822105556,-52.36541389,-23,3880933,-5033206,532565,ROBOT,IGS / IGS Multi-GNSS / RTS,IGN,42807M001,INTERNAL,Institut National de l'Information Geographique et,2
CZTG00ATF,TF,TRIMBLE ALLOY,LEIAR20,LEIM,GPS+GLO+GAL+BDS+QZSS+SBAS,-46.43189444,51.85548056,202.8,2719994.82,3463392.63,-4598612.94,ROBOT,IGS20 / IGS Multi-GNSS / IGS / RTS,IGN,91301M002,INTERNAL,Centre National d'Etudes Spatiales,2
DAE200KOR,KR,TRIMBLE NETR9,TRM59800.00,SCIS,GPS+GLO+GAL+BDS+QZSS,36.399425,127.3744806,116.824,-3120042.274,4084614.722,3764026.818,ROBOT,IGS / IGS Multi-GNSS,JAXA,23902M003,EXTERNAL CESIUM,Japan Aerospace Exploration Agency,2
DAEJ00KOR,KR,TRIMBLE NETR9,TRM59800.00,SCIS,GPS+GLO+GAL+BDS+QZSS,36.3994,127.3745,117.037,-3120041.821,4084615.221,3764027.013,ROBOT,IGS20 / IGS14 Core / IGS08 / IGS / IGS14 / RTS / IGS Multi-GNSS,KASI,23902M002,EXTERNAL CESIUM,Korea Astronomy and Space Science Institute,2
DAKR00SEN,SN,TPS NET-G3A,TPSCR.G3,NONE,GPS+GLO,14.72122222,-17.43947222,51,5886533.48,-1849181.6,1610300.44,ROBOT,IGS20 / IGS / RTS,CDDIS,34108M001,INTERNAL,Direction des Travaux Geographiques et Cartographi,
DARW00AUS,AU,SEPT POLARX5,JAVRINGANT_DM,NONE,GPS+GLO+GAL+BDS+QZSS+IRNSS,-12.84369722,131.1327444,125.1,-4091359.606,4684606.42,-1408579.12,ROBOT,IGS20 / IGS08 Core / IGS14 Core / IGS08 / IGS / IGS14 / RTS / IGS Multi-GNSS,GA,50134M001,INTERNAL,Geoscience Australia,2
DAV100ATA,AQ,SEPT POLARX5,LEIAR25.R3,LEIT,GPS+GLO+GAL+BDS+QZSS+IRNSS,-68.5773,77.9726,44.5,486854.4996,2285099.366,-5914955.771,ROBOT,IGS20 / IGS08 Core / IGS14 Core / IGS08 / IGS / IGS14 / RTS / IGS Multi-GNSS,GA,66010M001,INTERNAL,Geoscience Australia,2
DEAR00ZAF,ZA,TRIMBLE ALLOY,ASH701941.B,SCIS,GPS+GLO,-30.66520556,23.99263889,1321.7,5017617.284,2233214.786,-3234696.199,ROBOT,IGS,ftp://igs.ign.fr/,30316M001,INTERNAL,National Geospatial Information,
DGAR00GBR,United Kingdom,SEPT POLARX5,ASH701945E_M,NONE,GPS+GLO+GAL+BDS+QZSS+IRNSS,-7.269684333,72.37024019,-64.7455,1916269.343,6029977.689,-801719.821,ROBOT,IGS20 / IGS08 Core / IGS14 Core / IGS08 / IGS / IGS14 / IGS Multi-GNSS / RTS,JPL,30802M001,INTERNAL,Jet Propulsion Laboratory,2
DHLG00USA,US,TPS NET-G3A,TPSCR.G3,SCIS,GPS+GLO,33.38980556,-115.7880278,-83.05,-2319099.26,-4799846.5,3490090.45,ROBOT,IGS,SIO,49904M001,INTERNAL,USGS,2
DJIG00DJI,DJ,SEPT POLARX5,TRM59800.00,NONE,GPS+GLO+GAL+BDS+IRNSS+SBAS,11.52628757,42.84706445,711.409,4583086.142,4250982.504,1266243.065,ROBOT,IGS20 / IGS Multi-GNSS / IGS / RTS,IGN,39901M005,INTERNAL,Centre National d'Etudes Spatiales,2
DLF100NLD,NL,TRIMBLE NETR9,LEIAR25.R3,LEIT,GPS+GLO+GAL+BDS+QZSS+SBAS,51.98601944,4.387458333,75.8,3924697.942,301124.893,5001905.154,ROBOT,IGS20 / IGS Multi-GNSS / IGS / RTS,DUT,13502M009,EXTERNAL CESIUM,Delft University of Technology,2
DLTV00VNM,VN,TRIMBLE NETR9,JAVRINGANT_DM,SCIS,GPS+GLO+GAL+BDS+QZSS,11.945,108.482,1587.62,-1978879.097,5920511.651,1311808.34,ROBOT,IGS / IGS Multi-GNSS,JAXA,24306M001,INTERNAL,Japan Aerospace Exploration Agency,
DRAG00ISR,IL,JAVAD TRE_3 DELTA,ASH700936D_M,SNOW,GPS+GLO,31.5932,35.39206944,31.8,4432980.662,3149432.093,3322110.441,ROBOT,IGS20 / IGS08 / IGS / IGS14,BKG,20710S001,INTERNAL,Survey of Israel,2
DRAO00CAN,CA,SEPT POLARX5,TWIVC6050,SCIS,GPS+GLO+GAL,49.3226,-119.625,542,-2059164.682,-3621108.388,4814432.366,ROBOT,IGS20 / IGS08 Core / IGS14 Core / IGS08 / IGS / IGS14 / IGS Multi-GNSS / RTS,PGC,40105M002,EXTERNAL H-MASER,Geological Survey of Canada,2
DUBO00CAN,CA,SEPT POLARX5,AOAD/M_T,NONE,GPS+GLO+GAL,50.2588,-95.8662,251,-417603.6,-4064529.8,4881432.16,ROBOT,IGS20 / IGS08 / IGS / IGS14 / RTS / IGS Multi-GNSS,CDDIS,40137M001,EXTERNAL RUBIDIUM SYMMETRICOM,Natural Resources Canada,2
DUMG00ATA,AQ,LEICA GR25,LEIAR25.R4,LEIT,GPS+GLO+GAL+BDS+QZSS+SBAS,-66.66516944,140.0022,-3.38,-1940884,1628468,-5833720,ROBOT,IGS / IGS Multi-GNSS / RTS,IGN,91501M003,INTERNAL,Centre National d'Etudes Spatiales,29
DUND00NZL,NZ,TRIMBLE ALLOY,TRM115000.00,NONE,GPS+GLO+GAL+BDS+QZSS,-45.883675,170.597175,386.9,-4388121.17,726671.05,-4556535.63,ROBOT,IGS / IGS Multi-GNSS / RTS,CDDIS,50212M003,INTERNAL,GNS Science,2
DYNG00GRC,GR,SEPT POLARX5,TRM59800.00,NONE,GPS+GLO+GAL+BDS+IRNSS+SBAS,38.07855278,23.93243333,510.6,4595220.016,2039434.081,3912626.007,ROBOT,IGS20 / IGS / IGS Multi-GNSS / RTS,IGN,12602M006,INTERNAL,Centre National d'Etudes Spatiales,2
EBRE00ESP,ES,LEICA GR50,LEIAR25.R4,NONE,GPS+GLO+GAL+BDS,40.82088611,0.49235,107.3,4833520,41536,4147461,ROBOT,IGS20 / IGS / IGS14 / IGS Multi-GNSS / RTS,BKG,13410M001,INTERNAL,Institut Cartografic i Geologic de Cataluny,2
EIL300USA,US,NOV OEM6,TPSCR.G5,TPSH,GPS,64.68788889,-147.1130139,177.2,-2296304.083,-1484805.898,5743078.376,ROBOT,IGS,CDDIS,49805S002,EXTERNAL CESIUM /RCVR 1,National Geospatial-Intelligence Agency,3
EIL400USA,US,NOV OEM6,TPSCR.G5,TPSH,GPS,64.68788889,-147.1130139,177.2,-2296304.083,-1484805.898,5743078.376,ROBOT,IGS,CDDIS,49805S002,EXTERNAL CESIUM /RCVR 2,National Geospatial-Intelligence Agency,3
ENAO00PRT,PT,JAVAD TRE_3,JAVRINGANT_G5T,NONE,GPS+GLO+GAL+BDS+SBAS,39.09120278,-28.02601111,91.6,4375732.153,-2329166.814,4000238.281,ROBOT,IGS / IGS Multi-GNSS / RTS,CDDIS,31902M005,INTERNAL,GeoForschungsZentrum,2
EPRT00USA,US,LEICA GR50,LEIAR20,LEIM,GPS+GLO+GAL,44.90871111,-66.99213056,30.4,1768544.556,-4164839.445,4480190.419,ROBOT,IGS08 / IGS,https://geodesy.noaa.gov/corsdata/,49928S001,INTERNAL,National Geodetic Survey,
ESCU00CAN,CA,TRIMBLE NETR9,ASH701945E_M,NONE,GPS,47.07340389,-64.79871028,-16.02,1852954.53,-3937498.76,4647314.64,ROBOT,IGS,CDDIS,40168M001,INTERNAL,NRCan+ Geodetic Survey Division,2
FAA100PYF,PF,SEPT POLARX5,LEIAR25.R4,NONE,GPS+GLO+GAL+BDS+QZSS+SBAS,-17.55531389,-149.6143,12.35,-5247393.111,-3076867.223,-1911521.528,ROBOT,IGS20 / IGS14 Core / IGS / IGS14 / IGS Multi-GNSS / RTS,CDDIS,92201M012,INTERNAL,ESA/ESOC,2
FAIR00USA,United States,SEPT POLARX5,ASH701945G_M,JPLA,GPS+GLO+GAL+BDS+QZSS,64.97799833,-147.4992396,319.1771,-2281621.772,-1453595.949,5756961.944,,IGS20 / IGS14 Core / IGS08 / IGS / IGS14 / IGS Multi-GNSS / RTS,JPL (ODC-Operational Data Center),40408M001,INTERNAL,Jet Propulsion Laboratory,2
FALK00FLK,Falkland Islands (Malvinas),SEPT POLARX5,ASH701945E_M,SCIT,GPS+GLO+GAL+BDS,-51.69365222,-57.87406736,50.8407,2106811.344,-3355170.667,-4981786.335,ROBOT,IGS20 / IGS14 Core / IGS / IGS14 / IGS Multi-GNSS / RTS,JPL (ODC-Operational Data Center),80602M001,INTERNAL,Jet Propulsion Laboratory,2
FFMJ00DEU,DE,JAVAD TRE_3 DELTA,LEIAR25.R3,LEIT,GPS+GLO+GAL+BDS+SBAS,50.09058056,8.664969444,178.3,4053455.7,617729.9,4869395.9,ROBOT,IGS / RTS / IGS Multi-GNSS,BKG,14279M001,INTERNAL,Bundesamt fuer Kartographie und Geodaesie,2
FLIN00CAN,CA,SEPT POLARX5,NOV750.R4,NOVS,GPS+GLO+GAL,54.7256,-101.978,320,-766174.46,-3611375.32,5184056.22,ROBOT,IGS20 / IGS14 Core / IGS08 / IGS / IGS14 / IGS Multi-GNSS / RTS,CDDIS,40135M001,INTERNAL,Natural Resources Canada,2
FLRS00PRT,PT,TRIMBLE ALLOY,TRM159900.00,NONE,GPS+GLO+GAL,39.45383333,-31.12638889,79.9,4221530.01,-2549242.33,4031397.8,ROBOT,IGS20 / IGS / IGS14 / IGS Multi-GNSS / RTS,BKG,31907M001,INTERNAL,Direção-Geral do Território,2
FRDN00CAN,CA,SEPT POLARX5,TPSCR.G3,NONE,GPS+GLO+GAL,45.933,-66.659,95.9,1760543.42,-4080069.4,4560178.6,ROBOT,IGS / RTS,CDDIS,40146M001,INTERNAL,Natural Resources Canada,2
FTNA00WLF,PF,TRIMBLE ALLOY,TRM59800.00,NONE,GPS+GLO+GAL+BDS+QZSS+SBAS,-14.30780311,-178.1209457,84.859,-6178322.446,-202694.9925,-1566024.468,ROBOT,IGS / IGS Multi-GNSS / RTS,IGN,92902S002,INTERNAL,Centre National d'Etudes Spatiales,2
FUNC00PRT,PT,TRIMBLE ALLOY,TRM159900.00,NONE,GPS+GLO+GAL,32.64794722,-16.90761667,78.5,5143339.43,-1563412.87,3421191.44,ROBOT,IGS20 / IGS14 Core / IGS / IGS14 / IGS Multi-GNSS / RTS,BKG,13911S001,INTERNAL,Direção-Geral do Território,2
GAMB00PYF,PF,TRIMBLE NETR9,TRM59800.00,NONE,GPS+GLO+GAL+BDS+SBAS,-23.13035471,-134.9648236,80.66,-4147126.809,-4152222.145,-2490033.108,ROBOT,IGS20 / IGS / IGS Multi-GNSS / RTS,IGN,92301M003,INTERNAL,Centre National d'Etudes Spatiales,2
GAMG00KOR,KR,SEPT POLARX5TR,LEIAR25.R4,LEIT,GPS+GLO+GAL+BDS+QZSS+IRNSS+SBAS,35.59008056,127.9197361,900,-3191598,4096876,3691823,ROBOT,IGS / IGS Multi-GNSS / RTS,IGN,23910M001,INTERNAL,Centre National d'Etudes Spatiales,2
GANP00SVK,SK,TRIMBLE ALLOY,TRM59800.00,SCIS,GPS+GLO+GAL+BDS+QZSS+IRNSS+SBAS,49.03471389,20.32293611,746,3929181.5,1455236.8,4793653.9,ROBOT,IGS / IGS14 / IGS Multi-GNSS / RTS,BKG,11515M001,INTERNAL,Geodetic and Cartographic Institute Bratislava,2
GCGO00USA,United States of America,JAVAD TRE_3 DELTA,JAVRINGANT_DM,SCIS,GPS+GLO+GAL+BDS+QZSS,64.97803647,-147.4994468,319.1771,-2281623.78,-1453585.627,5756963.743,ROBOT,IGS / RTS / IGS Multi-GNSS,JPL,40408M006,INTERNAL,Jet Propulsion Laboratory,2
GENO00ITA,IT,LEICA GR30,LEIAR20,NONE,GPS+GLO+GAL+BDS+SBAS,44.4194,8.921116667,153.5,4507890.272,707618.974,4441603.008,ROBOT,IGS / IGS Multi-GNSS,ASI,12712M002,INTERNAL,Agenzia Spaziale Italiana,2
GLPS00ECU,EC,SEPT POLARX5,ASH701945B_M,SCIT,GPS+GLO+GAL+BDS,-0.742998639,-90.30366858,1.7882,-33801.259,-6377516.528,-82154.3037,FIELD,IGS20 / IGS08 Core / IGS14 Core / IGS08 / IGS / IGS14 / IGS Multi-GNSS / RTS,JPL,42005M002,INTERNAL,Jet Propulsion Laboratory,2
GLSV00UKR,UA,TRIMBLE NETR9,TRM115000.00,NONE,GPS+GLO+GAL+BDS+QZSS,50.36417778,30.49673889,226.8,3512889.29,2068980.654,4888903.261,ROBOT,IGS20 / IGS08 / IGS / IGS14 / IGS Multi-GNSS,BKG,12356M001,INTERNAL,Main Astronomical Observatory of Ukraine,2
GODE00USA,US,SEPT POLARX5TR,AOAD/M_T,JPLA,GPS+GLO+GAL+BDS,39.02172758,-76.8268305,14.5046,1130773.718,-4831253.581,3994200.422,,IGS20 / IGS14 Core / IGS08 / IGS / IGS14 / IGS Multi-GNSS / RTS,JPL,40451M123,EXTERNAL H-MASER,Jet Propulsion Laboratory,2
GODN00USA,US,JAVAD TRE_3 DELTA,TPSCR.G3,SCIS,GPS+GLO+GAL+BDS,39.02116667,-76.82708333,18,1130760.876,-4831298.688,3994155.186,ROBOT,IGS20 / IGS / IGS Multi-GNSS / RTS,JPL,40451M127,INTERNAL,Jet Propulsion Laboratory,2
GODS00USA,US,JAVAD TRE_3 DELTA,JAVRINGANT_DM,SCIS,GPS+GLO+GAL+BDS,39.03477778,-77.38697222,19.1,1130752.305,-4831349.122,3994098.95,ROBOT,IGS / IGS Multi-GNSS / RTS,JPL,40451M128,EXTERNAL H2 Maser,Jet Propulsion Laboratory,2
GODZ00USA,US,JPS EGGDT,AOAD/M_T,JPLA,GPS+GLO,39.02172778,-76.82682778,14.509,1130773.867,-4831253.583,3994200.409,,IGS14 Core / IGS / IGS14,CDDIS,40451M123,EXTERNAL H-MASER,Jet Propulsion Laboratory,2
GOL200USA,United States,ASHTECH UZ-12,AOAD/M_T,NONE,GPS,35.42515556,-116.88925,986.6779,-2353614.316,-4641385.324,3676976.407,ROBOT,IGS14 Core / IGS / IGS14,JPL,40405S031,EXTERNAL H-MASER,Jet Propulsion Laboratory,2
GOLD00USA,United States of America,JAVAD TRE_G3TH DELTA,AOAD/M_T,NONE,GPS+GLO+GAL+QZSS,35.42515556,-116.88925,986.6779,-2353614.316,-4641385.352,3676976.434,ROBOT,IGS20 / IGS08 Core / IGS08 / IGS14 Core / IGS / IGS14 / IGS Multi-GNSS / RTS,JPL,40405S031,EXTERNAL H-MASER,Jet Propulsion Laboratory,2
GOP600CZE,CZ,SEPT POLARX5,SEPCHOKE_B3E6,SPKE,GPS+GLO+GAL+BDS+QZSS+IRNSS+SBAS,49.91366667,14.78560278,592.6,3979319.62,1050311.94,4857064.38,ROBOT,IGS Multi-GNSS / IGS / RTS,BKG,11502M006,EXTERNAL CESIUM,Research Institute of Geodesy+ Topography and Cart,2
GOP700CZE,CZ,TRIMBLE NETR9,SEPCHOKE_B3E6,SPKE,GPS+GLO+GAL+BDS+QZSS,49.91366667,14.78560278,592.6,3979319.64,1050311.92,4857064.37,ROBOT,IGS Multi-GNSS / IGS,BKG,11502M006,EXTERNAL CESIUM,Research Institute of Geodesy+ Topography and Cart,
GOPE00CZE,CZ,TRIMBLE ALLOY,TPSCR.G3,TPSH,GPS+GLO+GAL+BDS+IRNSS+SBAS,49.91370556,14.78562222,592.6,3979316.134,1050312.478,4857067.108,ROBOT,IGS / RTS / IGS Multi-GNSS,BEV,11502M002,EXTERNAL CESIUM,Research Institute of Geodesy+ Topography and Cart,2
GRAC00FRA,FR,LEICA GR50,TRM57971.00,NONE,GPS+GLO+GAL+BDS+SBAS,43.75448611,6.920761111,1319.8,4581708.63,556132.23,4389340.93,ROBOT,IGS / IGS Multi-GNSS / RTS,IGN,10002M010,INTERNAL,Institut National de l'Information Geographique et,2
GRAS00FRA,FR,TRIMBLE NETR9,ASH701945E_M,NONE,GPS+GLO+GAL+BDS+SBAS,43.75473889,6.920575,1319.3,4581690.811,556114.972,4389360.88,ROBOT,IGS20 / IGS08 / IGS / IGS14 / IGS Multi-GNSS / RTS,IGN,10002M006,INTERNAL,Centre National d'Etudes Spatiales,2
GRAZ00AUT,AT,SEPT POLARX5,LEIAR25.R4,LEIT,GPS+GLO+GAL+BDS,47.06712778,15.493475,538.3,4194424.124,1162702.46,4647245.193,ROBOT,IGS20 / IGS08 / IGS / IGS14 / RTS / IGS Multi-GNSS,BKG,11001M002,INTERNAL,Federal Office Of Metrology an Surveying,2
GUAM00GUM,GU,SEPT POLARX5,JAVRINGANT_DM,SCIS,GPS+GLO+GAL+BDS+QZSS,13.58933056,144.8683583,201.914,-5071312.657,3568363.635,1488904.402,ROBOT,IGS20 / IGS08 Core / IGS14 Core / IGS08 / IGS / IGS14 / IGS Multi-GNSS / RTS,JPL,50501M002,INTERNAL,Jet Propulsion Laboratory,2
GUAT00GTM,GT,LEICA GRX1200GGPRO,LEIAR25.R3,LEIT,GPS+GLO,14.59040278,-90.52018333,1519.9,-56063.582,-6174978.67,1596665.267,ROBOT,IGS20 / IGS08 Core / IGS14 Core / IGS08 / IGS / IGS14,ftp://geodesy.noaa.gov/cors,40901S001,INTERNAL,Instituto Geografico Nacional+ Guatemala,
GUUG00USA,US,TRIMBLE ALLOY,LEIAR20,LEIM,GPS+GLO+GAL,13.43320833,144.8027139,134.7,-5070465.249,3576460.234,1472093.785,ROBOT,IGS08 / IGS14 Core / IGS14 / IGS,https://geodesy.noaa.gov/corsdata/,82301M001,INTERNAL,National Geodetic Survey,2
HAL100USA,United States of America,SEPT POLARX5,JAVRINGANT_DM,SCIS,GPS+GLO+GAL+BDS+QZSS,20.70750556,-156.2561944,3049,-5466017.945,-2404394.655,2242210.248,ROBOT,IGS / IGS Multi-GNSS / RTS,JPL,40445M006,INTERNAL,Jet Propulsion Laboratory,2
HAMD00IRN,Islamic Republic of Iran,TRIMBLE NETR9,TRM57971.00,SCIT,GPS+GLO,34.86908266,48.53430644,1750.9381,3469898.018,3926741.412,3626961.147,ROBOT,IGS,SIO,20411M001,INTERNAL,National Cartographic Center of Iran,
HARB00ZAF,ZA,SEPT POLARX5TR,TRM59800.00,NONE,GPS+GLO+GAL+BDS+IRNSS+SBAS,-25.88696174,27.70724585,1558.078,5084657.615,2670325.25,-2768481.027,ROBOT,IGS14 Core / IGS08 / IGS / IGS14 / IGS Multi-GNSS / RTS,IGN,30302M009,EXTERNAL CESIUM,Centre National d'Etudes Spatiales,2
HERS00GBR,United Kingdom,SEPT POLARX5TR,LEIAR25.R3,NONE,GPS+GLO+GAL+BDS+SBAS,50.8673,0.3362,76.5,4033471.33,23667.86,4924300.35,ROBOT,IGS20 / IGS08 / IGS / IGS14 / IGS Multi-GNSS / RTS,BKG,13212M007,EXTERNAL H-MASER,NERC Space Geodesy Facility,2
HERT00GBR,United Kingdom,LEICA GRX1200GGPRO,LEIAT504GG,NONE,GPS+GLO,50.86747778,0.334352778,83.3,4033461.038,23537.662,4924318.165,ROBOT,IGS08 / IGS / IGS14 / RTS,BKG,13212M010,INTERNAL,NERC Space Geodesy Facility,2
HKSL00HKG,CN,LEICA GR50,LEIAR25.R4,LEIT,GPS+GLO+GAL+BDS,22.37200556,113.9279806,95.3,-2393382.414,5393861.187,2412592.401,ROBOT,IGS20 / IGS / RTS / IGS Multi-GNSS,CDDIS,23015M001,INTERNAL,Hong Kong Lands Department,2
HKWS00HKG,CN,LEICA GR50,LEIAR25.R4,LEIT,GPS+GLO+GAL+BDS,22.43428333,114.3353778,63.8,-2430579.004,5374285.676,2418956.331,ROBOT,IGS / RTS / IGS Multi-GNSS,CDDIS,23019M001,INTERNAL,Hong Kong Lands Department,2
HLFX00CAN,CA,SEPT POLARX5,TPSCR.G3,NONE,GPS+GLO+GAL,44.68355,-63.61127778,3.1,2018905.8,-4069070.52,4462415.41,ROBOT,IGS20 / IGS08 / IGS14 Core / IGS / IGS14 / RTS,CDDIS,40120M001,EXTERNAL RUBIDIUM,Natural Resources Canada,2
HNLC00USA,United States of America,TRIMBLE NETR9,ASH700936D_M,SNOW,GPS,21.3033,-157.8645,22,-5506799,-2240050,2302720,ROBOT,IGS20 / IGS14 Core / IGS08 / IGS / IGS14,SOPAC,49970S001,INTERNAL,Pacific GPS Facility,
HNPT00USA,US,LEICA GR50,LEIAX1202GG,NONE,GPS+GLO+GAL,38.58881667,-76.13037222,-28,1196626.343,-4846358.5,3956723.115,ROBOT,IGS,https://geodesy.noaa.gov/corsdata/,49913S001,INTERNAL,National Geodetic Survey,2
HNUS00ZAF,ZA,TRIMBLE ALLOY,ASH701941.B,SCIS,GPS+GLO,-34.42463056,19.22306111,63,4973168.805,1734085.391,-3585434.146,ROBOT,IGS20 / IGS,ftp://igs.ign.fr/,30322M001,INTERNAL,National Geospatial Information,2
HOB200AUS,AU,SEPT POLARX5,LEIAR25.R4,NONE,GPS+GLO+GAL+BDS+QZSS+IRNSS,-42.80470556,147.4387361,41,-3950072.25,2522415.362,-4311637.402,ROBOT,IGS08 Core / IGS20 / IGS14 Core / IGS08 / IGS / IGS14 / RTS / IGS Multi-GNSS,GA,50116M004,EXTERNAL H-MASER,Geoscience Australia,2
HOFN00ISL,IS,LEICA GR50,LEIAR25.R4,LEIT,GPS+GLO+GAL+BDS+IRNSS+SBAS,64.26729167,-15.197925,82.3,2679689.848,-727951.343,5722788.898,ROBOT,IGS08 Core / IGS20 / IGS08 / IGS / IGS14 / IGS Multi-GNSS / RTS,BKG,10204M002,INTERNAL,Bundesamt fuer Kartographie und Geodaesie,2
HOLB00CAN,CA,SEPT POLARX5,SEPCHOKE_B3E6,SPKE,GPS+GLO+GAL+BDS,50.6404,-128.135,560,-2503040.424,-3188233.325,4908701.543,ROBOT,IGS14 Core / IGS08 / IGS / IGS14 / IGS Multi-GNSS,PGC,40130M001,INTERNAL RECEIVER CLOCK,Geological Survey of Canada,2
HOLM00CAN,CA,ASHTECH UZ-12,ASH701945D_M,NONE,GPS,70.7364,-117.7609,39.5,-983063.87,-1867634.52,5998678.91,ROBOT,IGS20 / IGS14 Core / IGS / IGS14,CDDIS,40148M001,INTERNAL,NRCan+ Geodetic Survey Division,
HOLP00USA,US,SEPT POLARX5,TWIVC6150,SCIS,GPS+GLO+GAL+SBAS,33.92453889,-118.1681694,-6.71,-2500946.096,-4670472.952,3539500.547,ROBOT,IGS,CDDIS,49903M001,INTERNAL,USGS,3
HRAG00ZAF,ZA,JAVAD TRE_G3TH DELTA,LEIAR25.R3,LEIT,GPS+GLO+GAL+IRNSS+SBAS,-25.89040222,27.68518022,1407.38,5085418.18,2668226.51,-2768758.21,ROBOT,IGS Multi-GNSS / IGS / RTS,BKG,30302M010,EXTERNAL H-MASER,DLR German Space Operations Center,2
HRAO00ZAF,ZA,SEPT POLARX5TR,ASH701945E_M,NONE,GPS+GLO+GAL+BDS+IRNSS+SBAS,-25.89010556,27.68698056,1414.3,5085352.597,2668395.992,-2768731.551,ROBOT,IGS20 / IGS14 Core / IGS08 / IGS / IGS14 / IGS Multi-GNSS / RTS,JPL,30302M004,EXTERNAL H-MASER,Jet Propulsion Laboratory,2
HUEG00DEU,DE,JAVAD TRE_3L DELTA,LEIAR25.R4,LEIT,GPS+GLO+GAL+BDS+SBAS,47.83395,7.596169444,278.3,4251963.3,567043.8,4704708.7,ROBOT,IGS / RTS / IGS Multi-GNSS,BKG,14280M001,INTERNAL,Bundesamt fuer Kartographie und Geodaesie,2
HYDE00IND,IN,LEICA GRX1200GGPRO,LEIAT504GG,NONE,GPS+GLO,17.41725556,78.55086667,441.68,1208444.86,5966806.057,1897076.623,ROBOT,IGS20 / IGS14 Core / IGS08 / IGS / IGS14,CDDIS,22307M001,INTERNAL,National Geophysical Research Institute,2
IENG00ITA,IT,SEPT POLARX4TR,SEPCHOKE_MC,NONE,GPS+GLO+GAL+BDS+SBAS,45.01513333,7.639405556,316.6,4476537.4,600431.46,4488761.34,ROBOT,IGS / IGS Multi-GNSS,ASI,12724S001,EXTERNAL H-MASER,Istituto Nazionale di Ricerca Metrologica,2
IISC00IND,IN,SEPT POLARX5,ASH701945E_M,NONE,GPS+GLO+GAL+BDS+QZSS+IRNSS,13.02116586,77.57037594,843.7145,1337936.455,6070317.126,1427876.785,ROBOT,IGS08 Core / IGS20 / IGS14 Core / IGS08 / IGS / IGS14 / IGS Multi-GNSS / RTS,JPL,22306M002,INTERNAL,Jet Propulsion Laboratory,2
IITK00IND,IN,TRIMBLE ALLOY,TRM159900.00,SCIS,GPS+GLO+GAL+BDS+QZSS+IRNSS,26.52142222,80.23213333,71.7,968880.6487,5628037.65,2830900.729,ROBOT,RTS / IGS / IGS Multi-GNSS,,22317M001,,Indian Institute of Technology Kanpur,2
INEG00MEX,MX,TRIMBLE ALLOY,TRM115000.00,NONE,GPS+GLO+GAL+BDS,21.85615278,-102.2842028,1888.3,-1260435.67,-5788547.37,2360340.12,ROBOT,IGS / IGS Multi-GNSS,ftp://geodesia.inegi.org.mx,40507M001,INTERNAL,Instituto Nacional de Estadistica y Geografía,2
INVK00CAN,CA,TRIMBLE NETR9,ASH701945C_M,SCIS,GPS,68.3062,-133.527,46.36,-1628432.02,-1714393.06,5903844.73,ROBOT,IGS20 / IGS08 / IGS / IGS14,CDDIS,40150M001,INTERNAL,NRCan+ Geodetic Survey Division,2
IQAL00CAN,CA,TPS NET-G3A,TPSCR.G3,NONE,GPS+GLO,63.75596389,-68.51049722,91.7,1036001.02,-2631455.56,5697819.69,ROBOT,IGS20 / IGS / IGS14 / RTS,CDDIS,40194M001,INTERNAL,Natural Resources Canada,2
IQQE00CHL,CL,TRIMBLE NETR9,ASH700936D_M,SNOW,GPS,-20.27354167,-70.13171667,38.9,2034208,-5629172,-2196142,ROBOT,IGS,SIO,41708S002,INTERNAL,National Seismological Center of the U. of Chile,3
IRKJ00RUS,RU,JPS LEGACY,JPSREGANT_SD_E1,NONE,GPS+GLO,52.21901944,104.3161778,502.1,-968328.35,3794426.541,5018167.196,ROBOT,IGS20 / IGS08 / IGS,CDDIS,12313M002,EXTERNAL H-MASER,VNIIFTRI,4
IRKM00RUS,Russian Federation,JAVAD TRE_G3TH DELTA,AOAD/M_T,NONE,GPS+GLO,52.21902409,104.3162403,502.317,-968332.3889,3794425.409,5018167.706,ROBOT,IGS14 Core / IGS / IGS14,CDDIS,12313M001,EXTERNAL H-MASER,RDAAC,
ISBA00IRQ,IQ,TRIMBLE NETR5,TRM57971.00,NONE,GPS+GLO,33.34141389,44.43840278,72.4,3808364.974,3734430.116,3485693.39,ROBOT,IGS20 / IGS,https://geodesy.noaa.gov/corsdata/,20308M001,INTERNAL,Iraq Ministry of Water Resource General Directorat,2
ISHI00JPN,JP,TRIMBLE ALLOY,TRM59800.00,SCIS,GPS+GLO+GAL+QZSS,36.20883333,140.2189556,155.83,-3959648.754,3296836.337,3747005.576,ROBOT,IGS / IGS Multi-GNSS / RTS,CDDIS,21791M001,EXTERNAL H-MASER,Geospatial Information Authority of Japan,2
ISPA00CHL,CL,ASHTECH UZ-12,ASH701945E_M,SCIT,GPS,-27.12498294,-109.34441,112.4948,-1881703.507,-5359979.772,-2890599.259,ROBOT,IGS08 Core / IGS20 / IGS14 Core / IGS08 / IGS / IGS14,JPL,41703M007,INTERNAL,Jet Propulsion Laboratory,
ISTA00TUR,Turkey,LEICA GR25,LEIAR25.R4,LEIT,GPS+GLO+GAL+BDS+SBAS,41.10444722,29.01933889,147.2,4208830.46,2334850.14,4171267.18,ROBOT,IGS20 / IGS08 / IGS / RTS / IGS Multi-GNSS,BKG,20807M001,INTERNAL,Bundesamt fuer Kartographie und Geodaesie,2
IZMI00TUR,Turkey,TRIMBLE ALLOY,TRM115000.00,NONE,GPS+GLO+GAL+BDS+QZSS+SBAS,38.39480833,27.08182222,74.9,4456584.236,2278765.506,3939930.889,ROBOT,IGS / IGS Multi-GNSS,IGN,20817M001,INTERNAL,General Command of Mapping Turkey,2
JCTW00ZAF,ZA,TRIMBLE NETR9,TRM59800.00,SCIS,GPS+GLO+GAL+BDS,-33.95143333,18.46855,83.596,5023564.462,1677795.751,-3542025.865,ROBOT,IGS / IGS Multi-GNSS,JAXA,30305M001,INTERNAL,Japan Aerospace Exploration Agency,2
JDPR00IND,IN,TRIMBLE ALLOY,TWIVC6050,SCIT,GPS+GLO+GAL+BDS+QZSS+IRNSS+SBAS,26.20670556,73.023825,168.2,1671950.858,5476891.33,2799675.572,ROBOT,IGS / IGS Multi-GNSS,GA,22313M001,,ISTRAC,2
JFNG00CHN,CN,TRIMBLE ALLOY,TRM59800.00,NONE,GPS+GLO+GAL+BDS+QZSS+IRNSS+SBAS,30.51556541,114.4910189,71.324,-2279828.829,5004706.548,3219777.468,ROBOT,IGS20 / IGS / IGS Multi-GNSS / RTS,IGN,21602M006,INTERNAL,Centre National d'Etudes Spatiales,2
JNAV00VNM,VN,TRIMBLE NETR9,JAVRINGANT_DM,SCIS,GPS+GLO+GAL+BDS+QZSS,21.00458528,105.8439469,34.87,-1626346.47,5730605.79,2271881.48,ROBOT,IGS / IGS Multi-GNSS,JAXA,24301M001,INTERNAL,Japan Aerospace Exploration Agency,2
JOG200IDN,ID,JAVAD TRE_G3TH DELTA,JAV_RINGANT_G3T,NONE,GPS+GLO+GAL+QZSS,-7.763813889,110.3724639,174.4,-2200208.087,5924895.627,-855929.2334,CHAMBER,IGS / IGS Multi-GNSS / RTS,CDDIS,23109M002,INTERNAL,GeoForschungsZentrum,2
JOZ200POL,PL,TRIMBLE NETR9,TRM59800.00,NONE,GPS+GLO+GAL+BDS+QZSS,52.09783056,21.03234167,152.3,3664881,1409190,5009618,ROBOT,IGS08 / IGS / IGS Multi-GNSS / RTS,BKG,12204M002,INTERNAL,Warsaw University of Technology,2
JOZE00POL,PL,SEPT POLARX5,SEPCHOKE_B3E6,NONE,GPS+GLO+GAL+BDS+QZSS+IRNSS+SBAS,52.09727222,21.03153333,141.4,3664940.5,1409153.59,5009571.17,ROBOT,IGS08 / IGS20 / IGS / IGS14 / IGS Multi-GNSS,BEV,12204M001,INTERNAL,Warsaw University of Technology,2
JPLM00USA,US,SEPT POLARX5,AOAD/M_T,NONE,GPS+GLO+GAL+BDS,34.20481944,-118.173225,423.9843,-2493304.68,-4655215.103,3565497.592,ROBOT,IGS08 / IGS / IGS Multi-GNSS / RTS,JPL,40400M007,EXTERNAL RUBIDIUM,Jet Propulsion Laboratory,2
JPRE00ZAF,ZA,TRIMBLE NETR9,TRM59800.00,SCIS,GPS+GLO+GAL+BDS,-25.732025,28.28263333,1387.327,5064032.232,2724721.054,-2752950.721,ROBOT,IGS / IGS Multi-GNSS,JAXA,30325M001,INTERNAL,Japan Aerospace Exploration Agency,
KARR00AUS,AU,SEPT POLARX5,TRM59800.00,NONE,GPS+GLO+GAL+BDS+QZSS+IRNSS,-20.98142222,117.0971972,109.1,-2713833.263,5303935.11,-2269513.746,ROBOT,IGS08 / IGS08 Core / IGS20 / IGS / IGS14 / IGS Multi-GNSS / RTS,GA,50139M001,INTERNAL,Geoscience Australia,49
KAT100AUS,AU,SEPT POLARX5,LEIAR25.R3,LEIT,GPS+GLO+GAL+BDS+IRNSS,-14.37599444,132.1532778,184.3,-4147413.817,4581462.59,-1573359.081,ROBOT,IGS20 / IGS14 Core / IGS / IGS14 / IGS Multi-GNSS / RTS,GA,59968M001,INTERNAL,Geoscience Australia,2
KERG00ATF,TF,TRIMBLE ALLOY,ASH701945E_M,SNOW,GPS+GLO+GAL+BDS+QZSS+SBAS,-49.35146694,70.25552388,73.009,1406337,3918161,-4816167,ROBOT,IGS08 / IGS08 Core / IGS20 / IGS14 Core / IGS / IGS14 / IGS Multi-GNSS / RTS,IGN,91201M002,INTERNAL,Centre National d'Etudes Spatiales,2
KHAR00UKR,UA,NOV OEMV3,NOV702GG,NONE,GPS+GLO,50.00510278,36.23900833,201,3312984.369,2428203.401,4863307.795,ROBOT,IGS,BKG,12314M001,INTERNAL,Main Astronomical Observatory of Ukraine,
KIR000SWE,SE,SEPT POLARX5,JNSCR_C146-22-1,OSOD,GPS+GLO+GAL+BDS+QZSS+SBAS,67.87757222,21.06023333,498,2248123.504,865686.533,5886425.594,,IGS / IGS Multi-GNSS / RTS,BKG,10422M001,INTERNAL,Lantmateriet the Swedish mapping authority,2
KIR800SWE,SE,TRIMBLE ALLOY,LEIAR25.R3,LEIT,GPS+GLO+GAL+BDS+QZSS+SBAS,67.87754167,21.06017778,498,2248127.371,865685.468,5886424.301,ROBOT,IGS Multi-GNSS / RTS / IGS,BKG,10422M002,INTERNAL,Lantmateriet the Swedish mapping authority,2
KIRI00KIR,KI,SEPT POLARX5,TRM59800.00,NONE,GPS+GLO+GAL+BDS+QZSS+IRNSS,1.354580556,172.9228972,36.2,-6327822.492,785604.1018,149769.0463,ROBOT,IGS20 / IGS14 Core / IGS / IGS14 / IGS Multi-GNSS / RTS,GA,50305M001,INTERNAL,Geoscience Australia,2
KIRU00SWE,SE,SEPT POLARX5TR,SEPCHOKE_B3E6,SPKE,GPS+GLO+GAL+BDS+QZSS+IRNSS+SBAS,67.85735,20.96844167,390.9,2251420.999,862817.095,5885476.564,ROBOT,IGS20 / IGS14 Core / IGS / IGS14 / IGS Multi-GNSS / RTS,CDDIS,10403M002,EXTERNAL CESIUM,ESA/ESOC,2
KIT300UZB,UZ,SEPT ASTERX4,SEPCHOKE_B3E6,NONE,GPS+GLO+GAL+BDS+QZSS+IRNSS+SBAS,39.13476667,66.88545,622.6,1944944.831,4556652.418,4004326.124,ROBOT,IGS08 / IGS20 / IGS14 Core / IGS / IGS14 / IGS Multi-GNSS / RTS,CDDIS,12334M001,INTERNAL,GeoForschungsZentrum,2
KITG00UZB,UZ,SEPT POLARX5,TRM59800.00,SCIS,GPS+GLO+GAL+BDS+QZSS+IRNSS+SBAS,39.1333864,66.88673816,620.631,1944879.726,4556783.77,4004205.937,ROBOT,IGS / IGS Multi-GNSS / RTS,IGN,12334M004,INTERNAL,Centre National d'Etudes Spatiales,2
KMNM00TWN,TW,TRIMBLE ALLOY,TPSCR3_GGD,CONE,GPS+GLO+GAL+BDS+QZSS+SBAS,24.46382222,118.3885778,49.1,-2761837.856,5110347.148,2625150.868,ROBOT,IGS20 / IGS / IGS Multi-GNSS,GA (ftp.ga.gov.au),23608M001,INTERNAL,National Land Surveying and Mapping Center,3
KOKB00USA,United States of America,SEPT POLARX5TR,ASH701945G_M,NONE,GPS+GLO+GAL+BDS+QZSS,22.12626378,-159.6649298,1167.5216,-5543838.361,-2054586.61,2387810.123,ROBOT,IGS08 / IGS08 Core / IGS20 / IGS14 Core / IGS / IGS14 / IGS Multi-GNSS,JPL,40424M004,EXTERNAL H-MASER,Jet Propulsion Laboratory,2
KOKV00USA,United States of America,JAVAD TRE_G3TH DELTA,ASH701945G_M,NONE,GPS+GLO+BDS+QZSS,22.12626378,-159.6649298,1167.5216,-5543838.361,-2054586.61,2387810.123,ROBOT,IGS14 Core / IGS / IGS14 / IGS Multi-GNSS / RTS,JPL,40424M004,EXTERNAL H-MASER,Jet Propulsion Laboratory,2
KOS100NLD,NL,SEPT POLARX5E,LEIAR25.R3,LEIT,GPS+GLO+GAL+BDS+QZSS+IRNSS+SBAS,52.17335556,5.818225,104.8,3899613.948,397361.592,5014738.666,ROBOT,IGS / IGS Multi-GNSS / RTS,BKG,13504M005,INTERNAL,Delft University of Technology,2
KOUC00NCL,NC,TRIMBLE NETR9,TRM57971.00,TZGD,GPS+GLO+GAL+BDS+QZSS,-20.55869722,164.2873333,84.17,-5751222.662,1617967.645,-2225744.218,ROBOT,IGS08 / IGS08 Core / IGS20 / IGS / IGS Multi-GNSS / RTS,IGN,92727S001,INTERNAL,DEPARTMENT of LAND,3
KOUG00GUF,GF,SEPT POLARX5TR,LEIAR25.R3,LEIT,GPS+GLO+GAL+BDS+SBAS,5.098470868,-52.63975015,107.248,3855263,-5049731,563040,ROBOT,IGS20 / IGS / IGS Multi-GNSS / RTS,IGN,97301M402,EXTERNAL CESIUM,Centre National d'Etudes Spatiales,2
KOUR00GUF,GF,SEPT POLARX5TR,SEPCHOKE_B3E6,NONE,GPS+GLO+GAL+BDS+QZSS,5.2522,-52.806,-25.57,3839591.447,-5059567.538,579956.867,ROBOT,IGS20 / IGS14 Core / IGS / IGS14 / IGS Multi-GNSS / RTS,CDDIS,97301M210,EXTERNAL H-MASER,ESA/ESOC,2
KRGG00ATF,TF,TRIMBLE ALLOY,LEIAR25.R4,LEIT,GPS+GLO+GAL+BDS+QZSS+IRNSS+SBAS,-49.35154301,70.25550593,72.9673,1406336.21,3918154.621,-4816172.845,ROBOT,IGS20 / IGS14 Core / IGS / IGS14 / IGS Multi-GNSS / RTS,IGN,91201M007,INTERNAL,Centre National d'Etudes Spatiales,2
KRS100TUR,Turkey,TRIMBLE NETR5,TRM55971.00,TZGD,GPS+GLO+SBAS,40.58845278,43.09344444,1811.7,3542999.668,3314720.171,4129002.589,ROBOT,IGS,IGN,20816M001,INTERNAL,General Command of Mapping Turkey,2
KSU100USA,US,SEPT POLARX5,TRM59800.99,SCIT,GPS+GLO+GAL+BDS,39.10075,-96.60948333,325.5905,-570504.689,-4923591.018,4001208.484,ROBOT,IGS20 / RTS / IGS / IGS Multi-GNSS,CDDIS,49240M001,INTERNAL,UNAVCO,2
KUJ200CAN,CA,SEPT POLARX5,AOAD/M_T_RFI_T,NONE,GPS+GLO+GAL,55.29000833,-77.73527222,8.6,773263.38,-3557025.2,5219841.77,ROBOT,IGS / IGS Multi-GNSS / RTS,NRCan,40154M002,INTERNAL,Natural Resources Canada,
KZN200RUS,Russian Federation,TRIMBLE ALLOY,TRM59800.00,SCIS,GPS+GLO+GAL+BDS+QZSS+IRNSS+SBAS,55.79078333,49.11924444,94.6,2352345.7,2717466.1,5251458.5,ROBOT,IGS20 / IGS Multi-GNSS / IGS / RTS,BKG,12374M001,INTERNAL,Kazan Federal University,2
LAE100PNG,PG,ASHTECH UZ-12,ASH700936A_M,NONE,GPS,-6.6737,146.9932,140.35,-5312857.053,3451108.016,-736322.743,COPIED,IGS08 / IGS08 Core / IGS20 / IGS,CDDIS,51002M001,INTERNAL,Department of Surveying and Land Studies,6
LAMA00POL,PL,LEICA GR50,LEIAR20,LEIM,GPS+GLO+GAL+BDS+QZSS+SBAS,53.8924,20.66993333,186.7,3524523,1329693,5129846,ROBOT,IGS / IGS Multi-GNSS,BEV,12209M001,INTERNAL,University of Warmia and Mazury in Olsztyn,2
LAUT00FJI,FJ,SEPT POLARX5,JAVRINGANT_DM,NONE,GPS+GLO+GAL+BDS+QZSS+IRNSS,-17.60880556,177.4465833,89.7,-6075194.5,270924,-1917189.6,ROBOT,IGS20 / IGS14 Core / IGS / IGS14 / IGS Multi-GNSS / RTS,GA,50804M002,INTERNAL,Geoscience Australia,2
LBCH00USA,US,SEPT POLARX5,TWIVC6150,SCIS,GPS+GLO+GAL+SBAS,33.78776944,-118.2033444,-27.58,-2507798.798,-4676369.692,3526890.801,ROBOT,IGS / RTS,CDDIS,40482M001,INTERNAL,USGS,2
LCK300IND,IN,TRIMBLE ALLOY,LEIAR25.R3,LEIT,GPS+GLO+GAL+BDS+QZSS+IRNSS+SBAS,26.91217933,80.95563581,64.165,894676.3053,5620593.474,2869571.05,ROBOT,IGS Multi-GNSS / IGS,CDDIS+KASI,22305M004,EXTERNAL PASSIVE HYDROGEN MASER,ISTRAC,2
LCK400IND,IN,TRIMBLE ALLOY,LEIAR25.R3,LEIT,GPS+GLO+GAL+BDS+QZSS+IRNSS+SBAS,26.91214261,80.95561669,64.1821,894678.4718,5620595.008,2869567.43,ROBOT,IGS20 / IGS Multi-GNSS / IGS,CDDIS+KASI,22305M005,EXTERNAL Passive Hydrogen Maser,ISTRAC,2
LEIJ00DEU,DE,JAVAD TRE_3 DELTA,LEIAR25.R4,LEIT,GPS+GLO+GAL+BDS+SBAS,51.35398333,12.37410278,178.4,3898736.2,855345.5,4958372.6,ROBOT,IGS / RTS / IGS Multi-GNSS,BKG,14267M001,INTERNAL,Bundesamt fuer Kartographie und Geodaesie,2
LHAZ00CHN,CN,LEICA GR25,LEIAR25.R4,LEIT,GPS+GLO+GAL+BDS+SBAS,29.65733056,91.10402222,3622,-106943.5,5549296.14,3139212.6,ROBOT,IGS08 / IGS08 Core / IGS20 / IGS / IGS14 / RTS / IGS Multi-GNSS,BKG,21613M002,INTERNAL,Bundesamt fuer Kartographie und Geodaesie,47
LICC00GBR,United Kingdom of Great Britain and Northern,CHC P5E,CHCC220GR2,CHCD,GPS+GLO+GAL+BDS+SBAS,51.49978889,-0.174838889,88.7,3978703.569,-12141.038,4968417.218,ROBOT,IGS / IGS Multi-GNSS / RTS,BKG,15201M001,INTERNAL,Imperial College London,2
LLAG00ESP,ES,SEPT POLARX5S,TRM57971.00,NONE,GPS+GLO+GAL+BDS+IRNSS+SBAS,28.48166611,-16.32071778,622.82,5384906.53,-1576770.73,3023828.01,ROBOT,IGS Multi-GNSS / IGS,BKG,31302M003,INTERNAL,DLR German Space Operations Center,2
LMMF00MTQ,MQ,TRIMBLE ALLOY,TRM57971.00,NONE,GPS+GLO+GAL+BDS+SBAS,14.59481667,-60.99616944,-27,2993387.952,-5399363.731,1596748.042,ROBOT,IGS14 / IGS20 / IGS14 Core / IGS / IGS Multi-GNSS / RTS,IGN,97205M001,INTERNAL,Institut National de l'Information Geographique et,2
LPAL00ESP,ES,LEICA GR50,LEIAR20,LEIM,GPS+GLO+GAL+BDS,28.76395833,-17.89383889,2207,5326648,-1719828,3052056,ROBOT,IGS14 / IGS20 / IGS14 Core / IGS / RTS,BKG,81701M001,INTERNAL,Instituto Geografico Nacional,2
LPGS00ARG,AR,JAVAD TRE_3,JAV_RINGANT_G3T,NONE,GPS+GLO+GAL+BDS,-34.90674444,-57.9323,29.9,2780102.99,-4437418.915,-3629404.525,CHAMBER,IGS14 / IGS08 / IGS08 Core / IGS20 / IGS14 Core / IGS / IGS Multi-GNSS / RTS,CDDIS,41510M001,INTERNAL,GeoForschungsZentrum,2
LROC00FRA,FR,LEICA GR25,ASH701945B_M,NONE,GPS+GLO+GAL+SBAS,46.15893889,-1.219319444,57.9,4424632.8,-94175.5,4577543.9,COPIED,IGS14 / IGS08 / IGS20 / IGS / IGS Multi-GNSS,IGN,10023M001,INTERNAL,Universite de la Rochelle,2
M0SE00ITA,IT,LEICA GR25,LEIAR25.R4,LEIT,GPS+GLO+GAL+BDS+SBAS,41.89311389,12.49325833,120.6,4642432.5,1028629.4,4236854.2,ROBOT,IGS20 / RTS / IGS Multi-GNSS / IGS,ASI,12772M001,EXTERNAL RUBIDIUM,University of Rome La Sapienza,2
MAC100AUS,AU,SEPT POLARX5,JAVRINGANT_DM,SCIS,GPS+GLO+GAL+BDS+QZSS+IRNSS,-54.4995,158.9358,-6.7,-3464038.488,1334172.743,-5169224.423,ROBOT,IGS14 / IGS08 / IGS08 Core / IGS20 / IGS14 Core / IGS / IGS Multi-GNSS / RTS,GA,50135M001,INTERNAL,Geoscience Australia,2
MAD200ESP,ES,ASHTECH Z-XII3T,AOAD/M_T,NONE,GPS,40.42916111,-4.249658333,829.5,4849202.399,-360328.9943,4114913.188,ROBOT,IGS,JPL,13407S012,EXTERNAL H-MASER,Jet Propulsion Laboratory,2
MADR00ESP,ES,JAVAD TRE_G3TH DELTA,AOAD/M_T,NONE,GPS+GLO+GAL,40.42916111,-4.249658333,829.5,4849202.394,-360328.9929,4114913.186,ROBOT,IGS / RTS / IGS Multi-GNSS,JPL,13407S012,EXTERNAL H-MASER,Jet Propulsion Laboratory,2
MAG000RUS,Russian Federation,ASHTECH Z-XII3,ASH700936D_M,JPLA,GPS,59.5758,150.77,361.9266,-2825810.152,1581233.011,5477005.621,,IGS,,12354M001,INTERNAL,RDAAC,
MAJU00MHL,MH,SEPT POLARX4TR,JAVRINGANT_DM,NONE,GPS+GLO+GAL+BDS+QZSS,7.119136111,171.364525,33.9,-6257572.506,950332.3662,785215.1556,ROBOT,IGS20 / IGS / IGS Multi-GNSS / RTS,GA,51501M001,INTERNAL,Geoscience Australia,
MAL200KEN,KE,SEPT POLARX5,LEIAR25.R4,NONE,GPS+GLO+GAL+BDS+SBAS,-2.996,40.194,-20.4,4865385.694,4110717.189,-331137.637,ROBOT,IGS14 / IGS20 / IGS14 Core / IGS / IGS Multi-GNSS / RTS,CDDIS,33201M003,INTERNAL,ESA/ESOC,2
MANA00NIC,NI,TRIMBLE NETR9,TRM59800.99,NONE,GPS,12.14893889,-86.24899444,71,407981.838,-6222925.713,1333528.967,ROBOT,IGS08 / IGS,CDDIS,41201S001,INTERNAL,Instituto Nicaraguense de Estudios Territoriales,2
MAR600SWE,SE,SEPT POLARX5,JAVRINGANT_DM,OSOD,GPS+GLO+GAL+BDS+IRNSS+SBAS,60.59514167,17.25852222,75.4,2998189.713,931451.589,5533398.473,,IGS14 / IGS08 / IGS20 / IGS / IGS Multi-GNSS / RTS,BKG,10405M002,INTERNAL,Lantmateriet the Swedish mapping authority,2
MAR700SWE,SE,TRIMBLE ALLOY,LEIAR25.R3,LEIT,GPS+GLO+GAL+BDS+SBAS,60.59505278,17.25843889,74.3,2998198.758,931449.71,5533392.638,ROBOT,IGS Multi-GNSS / IGS / RTS,BKG,10405M003,INTERNAL,Lantmateriet the Swedish mapping authority,2
MARS00FRA,FR,LEICA GR50,TRM57971.00,NONE,GPS+GLO+GAL+BDS+SBAS,43.27876944,5.353783333,61.7,4630532.8,433946.1,4350142.6,ROBOT,IGS / IGS Multi-GNSS / RTS,IGN,10073M008,INTERNAL,Institut National de l'Information Geographique et,2
MAS100ESP,ES,SEPT POLARX5,LEIAR25.R4,NONE,GPS+GLO+GAL+BDS+SBAS,27.76373889,-15.63327778,197.2,5439192.263,-1522055.61,2953454.72,ROBOT,IGS14 / IGS08 / IGS08 Core / IGS20 / IGS14 Core / IGS / IGS Multi-GNSS / RTS,CDDIS,31303M002,EXTERNAL CESIUM,ESA/ESOC,2
MAT100ITA,IT,LEICA GR30,LEIAR20,NONE,GPS+GLO+GAL+BDS+SBAS,40.64906111,16.70454444,534.5,4641951.507,1393053.602,4133280.821,ROBOT,IGS14 / IGS08 / IGS14 Core / IGS / IGS Multi-GNSS,CDDIS,12734M009,INTERNAL,Agenzia Spaziale Italiana,2
MATE00ITA,IT,LEICA GR30,LEIAR20,NONE,GPS+GLO+GAL+BDS+SBAS,40.64913056,16.70445833,535.6,4641949.709,1393045.298,4133287.333,ROBOT,IGS14 / IGS08 / IGS20 / IGS14 Core / IGS / RTS / IGS Multi-GNSS,ASI,12734M008,EXTERNAL H_MASER,Agenzia Spaziale Italiana,2
MATG00ITA,IT,LEICA GR10,LEIAR25,NONE,GPS+GLO+GAL+BDS+SBAS,40.64902778,16.70465278,537,4641953.035,1393063.547,4133279.589,ROBOT,IGS / IGS Multi-GNSS / RTS,ASI,12734M010,INTERNAL,Agenzia Spaziale Italiana,2
MAUI00USA,United States,TRIMBLE NETRS,ASH700936D_M,SNOW,GPS,20.7067,-156.257,3062,-5466069,-2404328,2242127,ROBOT,IGS14 / IGS08 / IGS20 / IGS14 Core / IGS,SIO,40445S008,INTERNAL,Pacific GPS Facility,
MAW100ATA,AQ,SEPT POLARX5,AOAD/M_T,AUST,GPS+GLO+GAL+BDS+QZSS+IRNSS,-67.6048,62.8707,59.2,1111287.138,2168911.297,-5874493.644,,IGS14 / IGS08 / IGS20 / IGS14 Core / IGS / RTS / IGS Multi-GNSS,GA,66004M001,INTERNAL,Geoscience Australia,2
MAYG00MYT,YT,TRIMBLE ALLOY,TRM59800.00,NONE,GPS+GLO+GAL+BDS+IRNSS+SBAS,-12.78205318,45.25815194,-16.35,4379104.607,4418744.475,-1401897.943,ROBOT,IGS Multi-GNSS / IGS / RTS,IGN,90101M001,INTERNAL,Centre National d'Etudes Spatiales,2
MBAR00UGA,UG,JAVAD TRE_3 DELTA,ASH701945B_M,SCIS,GPS+GLO+GAL+BDS+IRNSS,-0.601469056,30.73787619,1337.6533,5482951.388,3260442.643,-66519.8489,COPIED,IGS14 / IGS08 / IGS08 Core / IGS20 / IGS14 Core / IGS / IGS Multi-GNSS / RTS,JPL,33901M001,INTERNAL,Jet Propulsion Laboratory,2
MCHL00AUS,AU,TRIMBLE ALLOY,TRM59800.00,NONE,GPS+GLO+GAL+BDS+QZSS,-26.35890278,148.1449611,534.6,-4857858.931,3018464.37,-2814983.224,ROBOT,IGS20 / IGS / IGS Multi-GNSS / RTS,GA,59905M001,INTERNAL,Geoscience Australia,2
MCIL00JPN,JP,TRIMBLE ALLOY,TRM59800.80,SCIS,GPS+GLO+GAL+QZSS,24.29009444,153.9786611,35.66,-5227188.142,2551880.364,2607617.909,COPIED,IGS08 / IGS08 Core / IGS14 / IGS20 / IGS14 Core / IGS / IGS Multi-GNSS,CDDIS,21789S001,EXTERNAL RUBIDIUM,Geospatial Information Authority of Japan,6
MCM400ATA,AQ,JAVAD TRE_G3TH DELTA,AOAD/M_T,JPLA,GPS+GLO+GAL+QZSS,-77.83834947,166.6693293,98.0222,-1311703.172,310814.982,-6213255.16,,IGS08 / IGS08 Core / IGS14 / IGS20 / IGS14 Core / IGS / IGS Multi-GNSS,JPL,66001M003,INTERNAL,Jet Propulsion Laboratory,2
MDO100USA,United States of America,SEPT POLARX5,JAVRINGANT_DM,SCIS,GPS+GLO+GAL+BDS,30.68051111,-104.0149933,2004.4761,-1329998.797,-5328393.357,3236504.141,ROBOT,IGS08 / IGS08 Core / IGS14 / IGS20 / IGS / IGS Multi-GNSS / RTS,JPL,40442M012,INTERNAL,Jet Propulsion Laboratory,2
MDVJ00RUS,Russian Federation,TPS NETG3,JPSREGANT_DD_E1,NONE,GPS+GLO,56.02149167,37.21450278,257.4,2845456.3,2160954.3,5265993.4,ROBOT,IGS08 / IGS14 / IGS20 / IGS14 Core / IGS,CDDIS,12309M005,EXTERNAL H-MASER,Institute of Metrology for Time and Space,2
MEDI00ITA,IT,LEICA GR10,LEIAR20,LEIM,GPS+GLO+GAL+BDS+SBAS,44.51995556,11.64681389,50,4461400.894,919593.443,4449504.669,ROBOT,IGS08 / IGS14 / IGS20 / IGS / IGS Multi-GNSS,ASI,12711M003,EXTERNAL H-MASER,Agenzia Spaziale Italiana,2
MELI00ESP,ES,LEICA GR10,LEIAR25.R4,LEIT,GPS+GLO+GAL,35.28121944,-2.951641667,93.5,5205630,-268410,3663434,ROBOT,IGS20 / IGS / IGS Multi-GNSS / RTS,BKG,19379M001,INTERNAL,Instituto Geografico Nacional,2
MERS00TUR,Turkey,LEICA GR50,LEIAR10,NONE,GPS+GLO+GAL+BDS+QZSS+SBAS,36.56638889,34.25585278,38.5,4239149.446,2886967.945,3778877.023,ROBOT,IGS / IGS Multi-GNSS,IGN,20814M001,INTERNAL,General Command of Mapping Turkey,2
MET300FIN,FI,JAVAD TRE_3 DELTA,JAVRINGANT_DM,SCIS,GPS+GLO+GAL+BDS+SBAS,60.21745556,24.3945,79.2,2892583.975,1311799.563,5512619.854,ROBOT,IGS20 / IGS / IGS Multi-GNSS / RTS,BKG,10503M010,INTERNAL,Finnish Geodetic Institute,2
METG00FIN,FI,SEPT POLARX5,TRM59800.00,SCIS,GPS+GLO+GAL+BDS+IRNSS+SBAS,60.24196667,24.384175,59.7,2890652.524,1310295.517,5513958.853,ROBOT,IGS / IGS Multi-GNSS / RTS,IGN,10503M002,INTERNAL,Centre National d'Etudes Spatiales+ Finnish Geodetic Institute,2
METS00FIN,FI,JAVAD TRE_3 DELTA,ASH700936C_M,NONE,GPS,60.21746944,24.39531667,94.6,2892570.999,1311843.28,5512634.011,ROBOT,IGS08 / IGS14 / IGS20 / IGS,BKG,10503S011,INTERNAL,Finnish Geodetic Institute,2
MFKG00ZAF,ZA,TRIMBLE ALLOY,ASH701941.B,SCIS,GPS+GLO,-25.80501389,25.53996944,1310.9,5185375.39,2477739.181,-2760201.127,ROBOT,IGS,ftp://igs.ign.fr/,30321M001,INTERNAL,National Geospatial Information,2
MGUE00ARG,AR,SEPT POLARX5TR,LEIAR25.R4,NONE,GPS+GLO+GAL+BDS+SBAS,-35.77735,-69.39792778,1554.15,1823327.909,-4850352.447,-3709085.536,ROBOT,IGS / IGS Multi-GNSS / RTS,CDDIS,41558M001,EXTERNAL H-MASER,ESA/ESOC,2
MIKL00UKR,UA,LEICA GR50,LEIAR20,LEIM,GPS+GLO+GAL+BDS+QZSS,46.97278889,31.97282778,94.7,3698554.628,2308675.267,4639770.434,ROBOT,IGS20 / IGS / IGS Multi-GNSS,BKG,12335M001,INTERNAL,Main Astronomical Observatory of Ukraine,2
MIZU00JPN,JP,SEPT POLARX5,SEPCHOKE_B3E6,NONE,GPS+GLO+GAL+BDS+QZSS+IRNSS+SBAS,39.13516944,141.1328278,117,-3857167.648,3108694.914,4004041.688,ROBOT,IGS20 / IGS / IGS Multi-GNSS / RTS,CDDIS,21702M002,INTERNAL,GeoForschungsZentrum,2
MKEA00USA,US,SEPT POLARX5,JAVRINGANT_DM,SCIS,GPS+GLO+GAL+BDS+QZSS,19.80135661,-155.4563453,3754.7,-5464105.317,-2495165.842,2148291.476,ROBOT,IGS08 / IGS08 Core / IGS14 / IGS20 / IGS14 Core / IGS / IGS Multi-GNSS / RTS,JPL,40477M001,EXTERNAL H-MASER,Jet Propulsion Laboratory,8
MOBJ00RUS,Russian Federation,JPS LEGACY,JPSREGANT_SD_E1,NONE,GPS+GLO,55.11488196,36.5697129,182.6079,2936424.674,2178374.012,5208858.385,ROBOT,IGS,RDAAC,12365M002,INTERNAL,RDAAC,
MOBK00RUS,Russian Federation,JPS EGGDT,JPSREGANT_SD_E1,NONE,GPS+GLO,55.11488196,36.5697129,182.6079,2936424.674,2178374.012,5208858.385,ROBOT,IGS,JPL,12365M002,INTERNAL,Jet Propulsion Laboratory,
MOBN00RUS,Russian Federation,ASHTECH UZ-12,ASH701945C_M,SCIS,GPS,55.11488056,36.56951944,182.634,2936432.14,2178364.5,5208858.18,ROBOT,IGS,JPL,12365M001,INTERNAL,RDAAC,
MOBS00AUS,AU,SEPT POLARX5,JAVRINGANT_DM,NONE,GPS+GLO+GAL+BDS+QZSS+IRNSS,-37.82940278,144.9753417,40.6,-4130636.754,2894953.14,-3890530.236,ROBOT,IGS08 / IGS14 / IGS20 / IGS14 Core / IGS / IGS Multi-GNSS / RTS,GA,50182M001,INTERNAL,Geoscience Australia,2
MOIU00KEN,KE,JAVAD TRE_3 DELTA,ASH701945E_M,NONE,GPS+GLO+GAL+BDS,0.288320389,35.29001022,2201.5321,5207811.37,3685972.949,31891.7647,ROBOT,IGS / IGS Multi-GNSS,JPL,33204M001,INTERNAL,Jet Propulsion Laboratory,
MONP00USA,United States,TPS NET-G3A,ASH701945B_M,SCIS,GPS,32.89,-116.42,1842.55,-2386247.3,-4802359.2,3444902.34,COPIED,IGS08 / IGS14 / IGS20 / IGS14 Core / IGS,Scripps Orbit and Permanent Array Center,40497M004,INTERNAL,Scripps Orbit and Permanent Array Center,17
MORP00GBR,United Kingdom,TRIMBLE NETR8,AOAD/M_T,NONE,GPS,55.21278889,-1.685497222,144.5,3645667.9,-107277.3,5215053.5,ROBOT,IGS08 / IGS,BKG,13299S001,INTERNAL,Newcastle University,2
MQZG00NZL,NZ,TRIMBLE ALLOY,TRM115000.00,NONE,GPS+GLO+GAL+BDS+QZSS,-43.70273611,172.654705,154.68,-4580569.543,590465.441,-4384380.166,ROBOT,IGS08 / IGS14 / IGS08 Core / IGS20 / IGS14 Core / IGS / RTS / IGS Multi-GNSS,CDDIS,50214M001,INTERNAL,GNS Science,2
MRC100USA,United States of America,SEPT POLARX5,SEPCHOKE_B3E6,SPKE,GPS+GLO+GAL+BDS,38.49909965,282.6293504,27.2003,1092811.82,-4877221.971,3948968.109,ROBOT,IGS / IGS Multi-GNSS,CDDIS,49654M002,EXTERNAL H-MASER,U.S. Naval Research Laboratory,2
MRL100NZL,NZ,NOV OEM6,TPSCR.G5,TPSH,GPS,-41.57619444,173.7407528,147.2,-4749991.001,520984.518,-4210604.147,ROBOT,IGS,CDDIS,50254S001,EXTERNAL CESIUM /RCVR 1,National Geospatial-Intelligence Agency,3
MRL200NZL,NZ,NOV OEM6,TPSCR.G5,TPSH,GPS,-41.57619444,173.7407528,147.2,-4749991.001,520984.518,-4210604.147,ROBOT,IGS,CDDIS,50254S001,EXTERNAL CESIUM /RCVR 2,National Geospatial-Intelligence Agency,3
MRO100AUS,AU,TRIMBLE NETR9,TRM59800.00,NONE,GPS+GLO+GAL+BDS+QZSS,-26.69663333,116.6374944,354.1,-2556630.038,5097138.277,-2848384.781,ROBOT,IGS20 / IGS Multi-GNSS / IGS / RTS,GA,59913M001,INTERNAL,Geoscience Australia,2
MSSA00JPN,JP,TRIMBLE NETR9,TRM59900.00,SCIS,GPS+GLO+GAL+BDS+QZSS,36.14035278,138.3523083,1626.576,-3854396.726,3427835.992,3741739.523,ROBOT,IGS / IGS Multi-GNSS / RTS,JAXA,21796M001,EXTERNAL H-MASER,Japan Aerospace Exploration Agency,2
MTKA00JPN,JP,TRIMBLE NETR9,ASH701073.1,SNOW,GPS+GLO,35.67951389,139.5613861,109,-3947762.75,3364399.879,3699428.511,ROBOT,IGS08 / IGS,CDDIS,21741S002,INTERNAL,Electronic Navigation Research Institute,2
MTV100URY,UY,NOV OEM6,TPSCR.G5,TPSH,GPS,-34.91359167,-56.1763,40.7,2914536.977,-4349790.287,-3630033.464,ROBOT,IGS,CDDIS,42323S001,EXTERNAL CESIUM / RCVR1,National Geospatial-Intelligence Agency,3
MTV200URY,UY,NOV OEM6,TPSCR.G5,TPSH,GPS,-34.91359167,-56.1763,40.7,2914536.977,-4349790.287,-3630033.464,ROBOT,IGS,CDDIS,42323S001,EXTERNAL CESIUM / RCVR2,National Geospatial-Intelligence Agency,3
NABG00NOR,NO,TRIMBLE NETR9,TRM59900.00,SCIS,GPS+GLO+GAL+BDS,78.94309444,11.85731389,42.9,1201009.37,252158.016,6238022.126,ROBOT,IGS / IGS Multi-GNSS / RTS,BKG,10338M008,EXTERNAL H-MASER,Norwegian Mapping Authority,2
NAIN00CAN,CA,ASHTECH UZ-12,ASH701945D_M,NONE,GPS,56.53696389,-61.68871667,33.48,1671837.36,-3103474.6,5297671.08,ROBOT,IGS08 / IGS14 / IGS20 / IGS14 Core / IGS,CDDIS,40164M001,INTERNAL,NRCan+ Geodetic Survey Division,
NANO00CAN,CA,SEPT POLARX5,SEPCHOKE_B3E6,SPKE,GPS+GLO+GAL+BDS,49.2948,-124.0865,6,-2335726.73,-3451608.329,4812009.971,ROBOT,IGS08 / IGS14 / IGS20 / IGS14 Core / IGS / IGS Multi-GNSS,PGC,40138M001,INTERNAL CLOCK STEERING,Geological Survey of Canada,2
NAUR00NRU,NR,SEPT POLARX4TR,LEIAR25.R3,LEIT,GPS+GLO+GAL+BDS+QZSS,-0.551838889,166.92555,46.3,-6212555.173,1442786.623,-61006.7968,ROBOT,IGS14 / IGS20 / IGS14 Core / IGS / IGS Multi-GNSS / RTS,GA,50701M001,INTERNAL,Geoscience Australia,
NAUS00BRA,BR,TRIMBLE NETR9,TRM57971.00,NONE,GPS+GLO+GAL+SBAS,-3.022919444,-60.05501389,93.8,3179409.3,-5519130.6,-334110.1,ROBOT,IGS / RTS / IGS Multi-GNSS,https://www.ibge.gov.br/,41614M002,INTERNAL,Instituto Brasileiro de Geografia e Estatística,2
NCKU00TWN,TW,TRIMBLE NETR9,JAVRINGANT_DM,SCIS,GPS+GLO+GAL+BDS+QZSS,22.99665833,120.2225833,98.217,-2956913.107,5075881.93,2476417.112,ROBOT,IGS / IGS Multi-GNSS,JAXA,23606M001,INTERNAL,Japan Aerospace Exploration Agency,2
NICO00CYP,CY,LEICA GR50,LEIAR25.R4,LEIT,GPS+GLO+GAL+BDS+SBAS,35.14098056,33.39643333,191.7,4359417.88,2874117.01,3650778.27,ROBOT,IGS08 / IGS14 / IGS20 / IGS / IGS Multi-GNSS / RTS,BKG,14302M001,INTERNAL,Bundesamt fuer Kartographie und Geodaesie,2
NIST00USA,US,SEPT POLARX5TR,NOV750.R4,NONE,GPS+GLO+GAL+BDS+QZSS+SBAS,39.99506667,-105.2626056,1648.353,-1288398.567,-4721696.932,4078625.35,ROBOT,IGS14 / IGS20 / IGS,JPL,49507M002,EXTERNAL H-MASER,National Institute of Standards and Technology,2
NIUM00NIU,NU,SEPT POLARX5,TRM59800.00,NONE,GPS+GLO+GAL+BDS+QZSS+IRNSS,-19.07656667,-169.9270667,90.1,-5937159.667,-1054675.725,-2071390.581,ROBOT,IGS14 / IGS20 / IGS14 Core / IGS / IGS Multi-GNSS / RTS,GA,50210M001,INTERNAL,Geoscience Australia,2
NKLG00GAB,GA,SEPT POLARX5,TRM59800.00,SCIS,GPS+GLO+GAL+BDS+IRNSS+SBAS,0.353907711,9.672126269,31.496,6287385.733,1071574.676,39132.0395,ROBOT,IGS08 / IGS08 Core / IGS14 / IGS20 / IGS14 Core / IGS / IGS Multi-GNSS / RTS,IGN,32809M002,INTERNAL,Centre National d'Etudes Spatiales,2
NLIB00USA,United States,SEPT POLARX5TR,JAVRINGANT_DM,SCIS,GPS+GLO+GAL+BDS,41.77159167,-91.57489167,207.0648,-130934.4493,-4762291.739,4226854.664,ROBOT,IGS08 / IGS08 Core / IGS14 / IGS20 / IGS / IGS Multi-GNSS / RTS,JPL,40465M001,EXTERNAL H-MASER,Jet Propulsion Laboratory,2
NNOR00AUS,AU,SEPT POLARX5TR,SEPCHOKE_B3E6,NONE,GPS+GLO+GAL+BDS+QZSS+IRNSS+SBAS,-31.04873889,116.1927139,234.984,-2414151.326,4907778.436,-3270645.333,ROBOT,IGS08 / IGS14 / IGS20 / IGS14 Core / IGS / IGS Multi-GNSS / RTS,CDDIS,50181M001,EXTERNAL SLAVED CRYSTAL,ESA/ESOC,2
NOT100ITA,IT,LEICA GR30,LEIAR20,NONE,GPS+GLO+GAL+BDS+SBAS,36.87610833,14.98980833,126.2,4934528.669,1321262.251,3806479.508,ROBOT,IGS08 / IGS08 Core / IGS14 / IGS20 / IGS14 Core / IGS / IGS Multi-GNSS,ASI,12717M004,EXTERNAL H-MASER,Agenzia Spaziale Italiana,2
NOVM00RUS,Russian Federation,JPS LEGACY,JPSREGANT_SD_E1,NONE,GPS+GLO,55.0305,82.90948889,149.98,452261.2,3635877.47,5203453.26,ROBOT,IGS20 / IGS,CDDIS,12367M002,EXTERNAL H-MASER,Institute of Metrology for Time and Space,4
NRC100CAN,CA,JAVAD TRE_G3TH DELTA,AOAD/M_T,NONE,GPS+GLO+GAL,45.4542,-75.6238,82.5,1112777.33,-4341475.83,4522955.78,ROBOT,IGS08 / IGS14 / IGS20 / IGS / RTS / IGS Multi-GNSS,CDDIS,40114M001,EXTERNAL H-MASER,Natural Resources Canada,2
NRIL00RUS,Russian Federation,ASHTECH UZ-12,ASH701945B_M,SCIT,GPS,69.36183333,88.35977778,47.8937,64537.2912,2253782.854,5946363.481,FIELD,IGS08 / IGS08 Core / IGS14 / IGS20 / IGS14 Core / IGS,,12364M001,INTERNAL,RDAAC,
NRMD00NCL,NC,TRIMBLE NETR9,TRM57971.00,TZGD,GPS+GLO+GAL+BDS+QZSS,-22.22833056,166.4848833,160.384,-5743537.658,1380504.26,-2397897.027,ROBOT,IGS14 / IGS20 / IGS14 Core / IGS / RTS / IGS Multi-GNSS,IGN,92701M005,,DEPARTMENT of LAND,3
NTUS00SGP,SG,LEICA GR50,LEIAR20,LEIM,GPS+GLO+GAL+BDS+QZSS+SBAS,1.3458,103.6799,79,-1508022,6195580,148800,ROBOT,IGS20 / IGS / RTS / IGS Multi-GNSS,BKG,22601M001,INTERNAL,Delft University of Technology,2
NVSK00RUS,RU,TRIMBLE R9S,TRM57971.00,NONE,GPS+GLO,54.8406,83.2355,123.6429,433604.1534,3655557.747,5191288.038,ROBOT,IGS08 / IGS,BKG,12319M001,INTERNAL,Trofimuk Institute of Petroleum Geology,3
NYA100NOR,NO,TRIMBLE NETR9,ASH701073.1,SNOW,GPS+GLO+GAL+BDS+QZSS,78.92955278,11.86529444,83.7,1202434,252632,6237772,ROBOT,IGS08 / IGS14 / IGS14 Core / IGS / IGS Multi-GNSS,BKG,10317M003,INTERNAL,Norwegian Mapping Authority,2
NYA200NOR,NO,SEPT POLARX5,JAVRINGANT_G5T,NONE,GPS+GLO+GAL+BDS+QZSS+IRNSS+SBAS,78.93033333,11.85863889,81.5,1202379.31,252474.6543,6237786.542,ROBOT,IGS Multi-GNSS / IGS / RTS,CDDIS,10317M008,INTERNAL,GeoForschungsZentrum,2
NYAL00NOR,NO,TRIMBLE NETR9,AOAD/M_B,DOME,GPS+GLO+GAL+BDS+QZSS,78.92958056,11.86509444,79,1202431,252627,6237768,,IGS08 / IGS14 / IGS20 / IGS14 Core / IGS / IGS Multi-GNSS,BKG,10317M001,INTERNAL,Norwegian Mapping Authority,2
OAFA00ARG,AR,TRIMBLE NETR9,ASH700936C_M,NONE,GPS+GLO+GAL+BDS,-31.50868333,-68.62326667,727.3,1984093.3,-5068867.9,-3314488,ROBOT,IGS / RTS / IGS Multi-GNSS,RAMSAC,41508M001,INTERNAL,IGN-Argentina,2
OAK100GBR,United Kingdom,NOV OEM6,TPSCR.G5,TPSH,GPS,51.11761111,-0.905125,139.6,4011440.89,-63375.739,4941877.084,ROBOT,IGS,CDDIS,13235S002,EXTERNAL CESIUM / RCVR 1,National Geospatial-Intelligence Agency,3
OAK200GBR,United Kingdom,NOV OEM6,TPSCR.G5,TPSH,GPS,51.11761111,-0.905125,139.6,4011440.89,-63375.739,4941877.084,ROBOT,IGS,CDDIS,13235S002,EXTERNAL CESIUM / RCVR 2,National Geospatial-Intelligence Agency,3
OBE400DEU,DE,SEPT ASTERX4,SEPCHOKE_B3E6,NONE,GPS+GLO+GAL+BDS+QZSS+IRNSS+SBAS,48.08480556,11.27785556,650.5,4186704.43,834903.583,4723664.857,ROBOT,IGS Multi-GNSS / RTS / IGS,CDDIS,14208M007,INTERNAL,GeoForschungsZentrum,2
OHI200ATA,AQ,JAVAD TRE_G3TH DELTA,LEIAR25.R4,LEIT,GPS+GLO+GAL+SBAS,-63.3211,-57.9013,33.1,1525811.8,-2432479.1,-5676166,ROBOT,IGS08 / IGS08 Core / IGS14 / IGS20 / IGS14 Core / IGS / IGS Multi-GNSS,BKG,66008M005,EXTERNAL H-MASER,Bundesamt fuer Kartographie und Geodaesie,2
OHI300ATA,AQ,LEICA GR50,LEIAR25.R4,LEIT,GPS+GLO+GAL+BDS+SBAS,-63.32109472,-57.90138528,32.15,1525808.9,-2432478.5,-5676166,ROBOT,IGS08 / IGS14 / IGS14 Core / IGS20 / IGS / IGS Multi-GNSS / RTS,BKG,66008M006,EXTERNAL H-MASER,Bundesamt fuer Kartographie und Geodaesie,2
ONS100SWE,SE,TRIMBLE ALLOY,LEIAR25.R3,LEIT,GPS+GLO+GAL+BDS+SBAS,57.39533056,11.92453611,44.4,3370667.198,711818.723,5349787.879,ROBOT,IGS14 Core / IGS Multi-GNSS / IGS / RTS,BKG,10402M007,EXTERNAL H-MASER,Lantmateriet the Swedish mapping authority,2
ONSA00SWE,SE,SEPT POLARX5TR,AOAD/M_B,OSOD,GPS+GLO+GAL+BDS+SBAS,57.39529722,11.92551389,45.5,3370658.832,711876.939,5349786.745,,IGS08 / IGS14 / IGS20 / IGS / IGS Multi-GNSS / RTS,BKG,10402M004,EXTERNAL H-MASER,Lantmateriet the Swedish mapping authority,2
OP7100FRA,FR,SEPT POLARX5TR,LEIAR25.R4,LEIT,GPS+GLO+GAL+BDS+SBAS,48.83590586,2.334974917,124.553,4202779.735,171370.766,4778660.65,ROBOT,IGS / IGS Multi-GNSS,IGN,10001S007,EXTERNAL UTC(OP),LNE-SYRTE Observatoire de Paris,3
OPMT00FRA,FR,ASHTECH Z-XII3T,3S-02-TSADM,NONE,GPS,48.83588056,2.334883333,124.2,4202777.383,171367.9881,4778660.184,CONVERTED,IGS,IGN,10001S006,EXTERNAL UTC(OP),LNE-SYRTE Observatoire de Paris,3
ORID00MKD,MK,LEICA GR30,LEIAR25.R4,LEIT,GPS+GLO+GAL+BDS+SBAS,41.12731111,20.79404722,773,4498451.81,1708266.83,4173591.78,ROBOT,IGS20 / IGS / IGS Multi-GNSS / RTS,BKG,15601M001,INTERNAL,Bundesamt fuer Kartographie und Geodaesie,2
OSN300KOR,KR,NOV OEM6,TPSCR.G5,TPSH,GPS,37.08269167,127.0336083,64.4,-3068340.81,4066863.981,3824757.006,ROBOT,IGS,CDDIS,23904S002,EXTERNAL CESIUM /RCVR1,National Geospatial-Intelligence Agency,3
OSN400KOR,KR,NOV OEM6,TPSCR.G5,TPSH,GPS,37.08269167,127.0336083,64.4,-3068340.81,4066863.981,3824757.006,ROBOT,IGS,CDDIS,23904S002,EXTERNAL CESIUM /RCVR2,National Geospatial-Intelligence Agency,3
OUS200NZL,NZ,SEPT POLARX5,SEPCHOKE_B3E6,NONE,GPS+GLO+GAL+BDS+QZSS+IRNSS+SBAS,-45.869475,170.5109333,26.1,-4387890.837,733420.3903,-4555176.371,ROBOT,IGS08 / IGS14 / IGS20 / IGS14 Core / IGS / IGS Multi-GNSS / RTS,CDDIS,50212M002,INTERNAL,GeoForschungsZentrum,2
OWMG00NZL,NZ,TRIMBLE ALLOY,TRM59800.00,NONE,GPS+GLO+GAL+BDS+QZSS+SBAS,-44.02429523,-176.3688031,21.603,-4584394.106,-290931.9957,-4410048.023,ROBOT,IGS / IGS Multi-GNSS / RTS,IGN,50253M004,INTERNAL,Centre National d'Etudes Spatiales,2
P04300USA,US,SEPT POLARX5,TRM59800.99,SCIT,GPS+GLO+GAL+BDS+QZSS,43.88114722,-104.1857028,1490.9329,-1128701.594,-4465270.585,4399615.968,ROBOT,IGS20 / RTS / IGS / IGS Multi-GNSS,CDDIS,49226M001,INTERNAL,UNAVCO,2
P05100USA,US,SEPT POLARX5,TRM59800.00,SCIT,GPS+GLO+GAL+BDS+QZSS,45.8066,-108.5461444,1081.0981,-1416838.916,-4223178.976,4551064.102,ROBOT,RTS / IGS / IGS Multi-GNSS,CDDIS,49243M001,INTERNAL,UNAVCO,2
P05300USA,US,SEPT POLARX5,TRM59800.99,SCIT,GPS+GLO+GAL+BDS+QZSS,48.72608056,-107.7254194,814.9878,-1283559.101,-4015770.324,4771131.632,ROBOT,RTS / IGS / IGS Multi-GNSS,CDDIS,49255M001,INTERNAL,UNAVCO,2
P38900USA,US,SEPT POLARX5,TRM59800.80,SCIT,GPS+GLO+GAL+BDS+QZSS,43.81198889,-120.6033444,1397.891,-2347407.362,-3968720.253,4394008.509,COPIED,RTS / IGS / IGS Multi-GNSS,CDDIS,44501M001,INTERNAL,UNAVCO,2
P77900USA,US,SEPT POLARX5,TRM59800.00,SCIT,GPS+GLO+GAL+BDS+SBAS,35.20193889,-82.87247222,880.087,647472.8123,-5177938.985,3656703.608,ROBOT,RTS / IGS / IGS Multi-GNSS,CDDIS,44512M001,INTERNAL,UNAVCO,2
P80200USA,US,SEPT POLARX5,TRM59800.80,SCIT,GPS+GLO+GAL+BDS+QZSS,46.55756389,-100.6234167,573.1,-810033.1477,-4318611.413,4608498.893,COPIED,RTS / IGS / IGS Multi-GNSS,CDDIS,49299M001,INTERNAL,UNAVCO,2
PADO00ITA,IT,STONEX SC2200,STXSA1500,STXG,GPS+GLO+GAL+BDS+IRNSS+SBAS,45.41115,11.89605556,64.7,4388882.41,924567.03,4519588.45,ROBOT,IGS / IGS Multi-GNSS / RTS,BKG,12750S001,INTERNAL,University of Padova Dept of Geosciences,2
PALM00ATA,AQ,SEPT POLARX5,ASH700936D_M,SCIS,GPS+GLO+GAL+BDS+QZSS,-64.77508981,-64.05112181,31.2394,1192671.992,-2450887.706,-5747096.184,ROBOT,IGS08 / IGS08 Core / IGS20 / IGS / RTS / IGS Multi-GNSS,JPL,66005M002,INTERNAL,Jet Propulsion Laboratory,2
PARC00CHL,CL,TRIMBLE ALLOY,TRM57971.00,NONE,GPS+GLO+GAL+BDS,-53.137,-70.8799,22.3,1255992.5,-3622975.2,-5079719.2,ROBOT,IGS08 / IGS08 Core / IGS14 / IGS14 Core / IGS20 / IGS / IGS Multi-GNSS,SIO,41716S001,INTERNAL,National Seismological Center of the U. of Chile,32
PARK00AUS,AU,SEPT POLARX5TR,LEIAR25,NONE,GPS+GLO+GAL+BDS+QZSS,-32.99876111,148.2646139,397.4,-4554255.23,2816652.456,-3454059.715,ROBOT,IGS / IGS Multi-GNSS / RTS,GA,50108M001,EXTERNAL H-MASER,Geoscience Australia,2
PBR400IND,IN,TRIMBLE ALLOY,LEIAR25,LEIT,GPS+GLO+GAL+BDS+QZSS+IRNSS+SBAS,11.63744167,92.71243056,-14.6,-295668.617,6240862.906,1278143.336,ROBOT,IGS / IGS Multi-GNSS,,22308M003,EXTERNAL CS-5071A,ISTRAC,2
PDEL00PRT,PT,TRIMBLE ALLOY,TRM159900.00,NONE,GPS+GLO+GAL,37.74774722,-25.66276667,110.8,4551596.139,-2186893.415,3883410.679,ROBOT,IGS08 / IGS14 / IGS08 Core / IGS20 / IGS / IGS Multi-GNSS / RTS,BKG,31906M004,INTERNAL,Direção-Geral do Território,2
PENC00HUN,HU,LEICA GRX1200GGPRO,LEIAT504GG,LEIS,GPS+GLO,47.7896,19.28152222,291.7,4052449.8,1417680.8,4701406.9,ROBOT,IGS20 / IGS / RTS,BKG,11206M006,INTERNAL,FÖMI Satellite Geodetic Observatory,2
PERT00AUS,AU,TRIMBLE ALLOY,TRM59800.00,NONE,GPS+GLO+GAL+BDS+QZSS,-31.80195833,115.8852556,12.7,-2368688.036,4881316.696,-3341794.974,ROBOT,IGS08 / IGS14 / IGS14 Core / IGS20 / IGS / IGS Multi-GNSS / RTS,GA,50133M001,INTERNAL,Geoscience Australia,2
PETS00RUS,Russian Federation,JAVAD TRE_G3TH DELTA,ASH701933B_M,SCIS,GPS+GLO,53.0233,158.6501361,102.2,-3580828.5,1399698.1,5072185.2,,IGS20 / IGS,CDDIS,12355M003,INTERNAL,RDAAC,
PGEN00PHL,PH,LEICA GR50,LEIAR25,LEIT,GPS+GLO+GAL+BDS+QZSS+SBAS,6.0649117,125.1316614,121.086,-3650007.45,5187339.681,669409.364,ROBOT,IGS / IGS Multi-GNSS,IGN,22013M001,INTERNAL,Nat'l Mapping and Resource Info. Authority,2
PICL00CAN,CA,SEPT POLARX5,TWIVC6150,NONE,GPS+GLO+GAL,51.47980833,-90.161975,315.1,-11253.04,-3980586.68,4967210.25,ROBOT,IGS20 / IGS / IGS Multi-GNSS / RTS,CDDIS,40155M001,INTERNAL,Natural Resources Canada,2
PIE100USA,United States of America,JAVAD TRE_3 DELTA,ASH701945E_M,NONE,GPS+GLO+GAL+BDS,34.30150581,-108.1189274,2347.7109,-1640916.928,-5014781.187,3575447.077,ROBOT,IGS08 / IGS14 / IGS20 / IGS14 Core / IGS / IGS Multi-GNSS / RTS,JPL,40456M001,EXTERNAL H-MASER,Jet Propulsion Laboratory,2
PIMO00PHL,PH,JAVAD TRE_G3TH DELTA,ASH701945C_M,NONE,GPS+GLO+BDS+QZSS,14.63571944,121.0777306,95.532,-3186293.8,5286624.28,1601158.31,ROBOT,IGS08 / IGS08 Core / IGS20 / IGS / IGS Multi-GNSS / RTS,JPL,22003M001,INTERNAL,Jet Propulsion Laboratory,2
PIN100USA,US,TPS NET-G3A,ASH701945B_M,SCIS,GPS,33.61,-116.46,1256.17,-2369510.78,-4761206.89,3511396.27,COPIED,IGS,Scripps Orbit and Permanent Array Center,40407M003,INTERNAL,Scripps Orbit and Permanent Array Center,2
PNGM00PNG,PG,TRIMBLE NETR9,JAVRINGANT_DM,NONE,GPS+GLO+GAL+BDS+QZSS,-2.043222222,147.366,116.3,-5367943.2,3437431.2,-225886,ROBOT,IGS20 / IGS Multi-GNSS / IGS / RTS,GA,51006M001,INTERNAL,Geoscience Australia,16
POAL00BRA,BR,TRIMBLE NETR9,TRM115000.00,NONE,GPS+GLO+GAL+BDS,-30.07404167,-51.11976389,76.75,3467519.4,-4300378.53,-3177517.73,ROBOT,IGS20 / IGS / IGS Multi-GNSS / RTS,CDDIS,41616M001,INTERNAL,Instituto Brasileiro de Geografia e Estatística,2
POHN00FSM,Micronesia+ Federated States of,SEPT POLARX5,JAVRINGANT_DM,NONE,GPS+GLO+GAL+BDS+QZSS+IRNSS,6.959944444,158.2101167,90.7,-5879158.741,2350291.76,767748.1911,ROBOT,IGS14 / IGS20 / IGS14 Core / IGS / IGS Multi-GNSS / RTS,GA,51601M001,INTERNAL,Geoscience Australia,2
POL200KGZ,KG,JAVAD TRE_3 DELTA,TPSCR.G3,NONE,GPS+GLO+GAL+BDS+QZSS,42.6798,74.6943,1714.2,1239971.451,4530790.088,4302578.795,ROBOT,IGS08 / IGS14 / IGS08 Core / IGS14 Core / IGS20 / IGS / IGS Multi-GNSS,JPL,12348M001,INTERNAL,Jet Propulsion Laboratory,2
POLV00UKR,UA,LEICA GR50,LEIAR20,LEIM,GPS+GLO+GAL+BDS+QZSS,49.60261389,34.54292778,178.1,3411557.338,2348463.835,4834396.643,ROBOT,IGS08 / IGS14 / IGS08 Core / IGS20 / IGS / IGS Multi-GNSS,BKG,12336M001,INTERNAL,Main Astronomical Observatory of Ukraine,2
POTS00DEU,DE,JAVAD TRE_3,JAVRINGANT_G5T,NONE,GPS+GLO+GAL+BDS+QZSS+IRNSS+SBAS,52.37929722,13.06609167,144.4,3800689.634,882077.3857,5028791.318,ROBOT,IGS08 / IGS14 / IGS20 / IGS / IGS Multi-GNSS / RTS,CDDIS,14106M003,INTERNAL,GeoForschungsZentrum,2
POVE00BRA,BR,TRIMBLE NETR9,TRM115000.00,NONE,GPS+GLO+GAL+BDS,-8.709336583,-63.89631978,119.6,2774265.608,-5662060.141,-959415.8531,ROBOT,IGS20 / IGS / RTS / IGS Multi-GNSS,CDDIS,41628M001,INTERNAL,Instituto Brasileiro de Geografia e Estatística,2
PPPC00PHL,PH,LEICA GR50,LEIAR25,LEIT,GPS+GLO+GAL+BDS+QZSS+SBAS,9.7729319,0.021666667,66.528,-3022676.63,5511839.312,1075517.497,ROBOT,IGS / IGS Multi-GNSS,IGN,22016M001,INTERNAL,Nat'l Mapping and Resource Info. Authority,4
PRDS00CAN,CA,JAVAD TRE_3N DELTA,AOAD/M_T,NONE,GPS+GLO+GAL,50.8713,-114.2935,1247.9,-1659602.83,-3676725.75,4925493.59,ROBOT,IGS08 / IGS14 / IGS20 / IGS / RTS / IGS Multi-GNSS,CDDIS,40124M001,EXTERNAL H-MASER,Natural Resources Canada,2
PRE300ZAF,ZA,NOV OEM6,TPSCR.G5,TPSH,GPS,-25.74649444,28.22404444,1413.8,5066223.489,2719222.966,-2754406.543,ROBOT,IGS,CDDIS,30310S002,EXTERNAL CESIUM /RCVR1,National Geospatial-Intelligence Agency,3
PRE400ZAF,ZA,NOV OEM6,TPSCR.G5,TPSH,GPS,-25.74649444,28.22404444,1413.8,5066223.489,2719222.966,-2754406.543,ROBOT,IGS,CDDIS,30310S002,EXTERNAL CESIUM /RCVR2,National Geospatial-Intelligence Agency,3
PTAG00PHL,PH,LEICA GR50,LEIAR25.R4,LEIT,GPS+GLO+GAL+BDS+QZSS+SBAS,14.535442,121.0407639,86.65,-3184318.607,5291065.565,1590418.272,ROBOT,IGS20 / IGS / IGS Multi-GNSS,IGN,22006M005,INTERNAL,Nat'l Mapping and Resource Info. Authority,2
PTBB00DEU,DE,SEPT POLARX5TR,LEIAR25.R4,LEIT,GPS+GLO+GAL+BDS+IRNSS+SBAS,52.29618889,10.45974444,130.2,3844060.11,709661.2,5023129.46,ROBOT,IGS / IGS Multi-GNSS,BKG,14234M001,EXTERNAL ACTIVE H-MASER,Bundesamt fuer Kartographie und Geodaesie+ Physikalisch-Technische Bundesanstalt,2
PTGG00PHL,PH,SEPT POLARX5,TRM59800.00,SCIS,GPS+GLO+GAL+BDS+QZSS+IRNSS+SBAS,14.53540222,121.0412654,86.944,-3184365.633,5291038.885,1590414.082,ROBOT,IGS / IGS Multi-GNSS / RTS,IGN,22006M006,INTERNAL,Centre National d'Etudes Spatiales,2
PTVL00VUT,VU,SEPT POLARX5,JAVRINGANT_DM,NONE,GPS+GLO+GAL+BDS+QZSS+IRNSS,-17.74943333,168.315025,86.4,-5950573.262,1230677.252,-1932016.954,ROBOT,IGS20 / IGS Multi-GNSS / IGS / RTS,GA,51402M002,INTERNAL,Geoscience Australia,2
QAQ100GRL,GL,SEPT POLARX5,ASH701945E_M,SCIS,GPS+GLO+GAL+BDS,60.71526389,-46.04776111,110.4,2170942.18,-2251829.95,5539988.29,ROBOT,IGS08 / IGS14 / IGS08 Core / IGS14 Core / IGS20 / IGS / IGS Multi-GNSS,CDDIS,43007M001,INTERNAL,DTU Space,2
QIKI00CAN,CA,ASHTECH UZ-12,ASH701945E_M,NONE,GPS,67.55933333,-64.03366667,13.3,1069081.29,-2195214.2,5872519.02,ROBOT,IGS08 / IGS14 / IGS14 Core / IGS20 / IGS,CDDIS,40166M001,INTERNAL,NRCan+ Geodetic Survey Division,2
QUI300ECU,EC,NOV OEM6,TPSCR.G5,TPSH,GPS,-0.139580556,-78.46728056,2927.5,1275746.601,-6252216.81,-15440.994,ROBOT,IGS,CDDIS,42003S004,EXTERNAL CESIUM /RCVR1,National Geospatial-Intelligence Agency,3
QUI400ECU,EC,NOV OEM6,TPSCR.G5,TPSH,GPS,-0.139580556,-78.46728056,2927.5,1275746.601,-6252216.81,-15440.994,ROBOT,IGS,CDDIS,42003S004,EXTERNAL CESIUM /RCVR2,National Geospatial-Intelligence Agency,3
QUIN00USA,United States of America,JAVAD TRE_3 DELTA,ASH701945E_M,SNOW,GPS+GLO+GAL+BDS+QZSS,39.97455278,-120.9444278,1105.7651,-2517231.209,-4198595.058,4076531.208,ROBOT,IGS08 / IGS14 / IGS20 / IGS / IGS Multi-GNSS / RTS,JPL,40433M004,INTERNAL,Jet Propulsion Laboratory,2
RABT00MAR,MA,JAVAD TRE_3 DELTA,TRM29659.00,SCIS,GPS+GLO+GAL+BDS+IRNSS,33.99810278,-6.854288889,90.1,5255617.68,-631745.622,3546322.61,ROBOT,IGS08 / IGS14 / IGS20 / IGS / IGS Multi-GNSS,JPL,35001M002,INTERNAL,Jet Propulsion Laboratory,2
RAEG00PRT,PT,LEICA GR50,LEIAR20,NONE,GPS+GLO+GAL+BDS,36.9857,-25.12638889,297.9,4618477.733,-2166047.526,3816304.845,ROBOT,IGS / IGS Multi-GNSS / RTS,BKG,31912M003,EXTERNAL H-MASER,Instituto Geografico Nacional,2
RAMO00ISR,IL,JAVAD TRE_G3TH DELTA,ASH701945B_M,SNOW,GPS+GLO,30.59775833,34.76313889,893.1,4514719.1,3133506,3228042.6,COPIED,IGS08 / IGS08 Core / IGS14 / IGS20 / IGS,BKG,20703S001,INTERNAL,Survey of Israel,2
RBAY00ZAF,ZA,TRIMBLE ALLOY,TRM59800.00,SCIS,GPS+GLO,-28.79554583,32.07838508,31.7927,4739765.812,2970758.377,-3054077.646,ROBOT,IGS08 / IGS08 Core / IGS20 / IGS / RTS,ftp://igs.ign.fr/,30315M001,INTERNAL,National Geospatial Information,25
RDSD00DOM,DO,TRIMBLE NETR9,TRM59800.00,SCIS,GPS+GLO+GAL+BDS,18.46139722,-69.9113,-9.2087,2078681.178,-5683736.413,2006886.909,ROBOT,IGS20 / IGS / RTS / IGS Multi-GNSS,CDDIS,40805M001,INTERNAL,Geomedicion+ Instrumentos y Sistemas,2
REDU00BEL,BE,SEPT POLARX5TR,SEPCHOKE_B3E6,NONE,GPS+GLO+GAL+BDS+QZSS+IRNSS+SBAS,50.0015,5.144880556,369.9,4091423.462,368380.429,4863179.703,ROBOT,IGS Multi-GNSS / IGS / RTS,CDDIS,13102M001,EXTERNAL CESIUM,ESA/ESOC,2
RESO00CAN,CA,ASHTECH UZ-12,ASH700936A_M,NONE,GPS,74.6908,-94.8933,34.9,-144097.43,-1683123.97,6129777.88,COPIED,IGS08 / IGS14 / IGS20 / IGS,CDDIS,40149M001,INTERNAL,NRCan+ Geodetic Survey Division,
REUN00REU,FR,SEPT POLARX5,TRM55971.00,NONE,GPS+GLO+GAL+BDS+SBAS,-21.20833333,55.57166667,1558.4,3364099.167,4907944.459,-2293466.897,ROBOT,IGS08 / IGS08 Core / IGS14 / IGS14 Core / IGS20 / IGS / IGS Multi-GNSS / RTS,IGN / Saint-Mandé,97401M003,INTERNAL,Institut National de l'Information Geographique et+ INSTITUT DE PHYSIQUE DU GLOBE DE PARIS,2
REYK00ISL,IS,LEICA GR50,LEIAR25.R4,LEIT,GPS+GLO+GAL+BDS+IRNSS+SBAS,64.13878333,-21.95548333,93.1,2587384.533,-1043033.497,5716564.008,ROBOT,IGS20 / IGS / IGS Multi-GNSS / RTS,BKG,10202M001,INTERNAL,Bundesamt fuer Kartographie und Geodaesie,2
RGDG00ARG,AR,TRIMBLE ALLOY,TRM59800.00,SCIS,GPS+GLO+GAL+BDS+SBAS,-53.78583854,-67.75152794,32.364,1429870.396,-3495334.769,-5122723.007,ROBOT,IGS Multi-GNSS / IGS / RTS,IGN,41507M007,INTERNAL,Centre National d'Etudes Spatiales,2
RIGA00LVA,LV,LEICA GR25,LEIAR25.R4,LEIT,GPS+GLO+GAL+BDS+SBAS,56.94861944,24.05877222,34.7,3183899.344,1421478.378,5322810.736,ROBOT,IGS08 / IGS14 / IGS20 / IGS / IGS Multi-GNSS / RTS,BKG,12302M002,INTERNAL,Institute of astronomy of the University of Latvia,2
RIO200ARG,AR,SEPT ASTERX4,SEPCHOKE_B3E6,NONE,GPS+GLO+GAL+BDS+SBAS,-53.78547222,-67.75111944,32,1429907.783,-3495354.812,-5122698.655,ROBOT,IGS14 / IGS14 Core / IGS20 / IGS / IGS Multi-GNSS / RTS,CDDIS,41507M006,INTERNAL,GeoForschungsZentrum,2
RIOP00ECU,EC,TRIMBLE NETRS,TRM41249.00,NONE,GPS,-1.6506,-78.6511,2793,1255140.98,-6253585.578,-182569.6128,ROBOT,IGS,CDDIS,42006M001,INTERNAL,UNAVCO,3
ROAG00ESP,ES,SEPT POLARX5TR,LEIAR25.R4,NONE,GPS+GLO+GAL+BDS+IRNSS+SBAS,36.46335,-6.206275,83.2,5105577.352,-555208.925,3769714.099,ROBOT,IGS / IGS Multi-GNSS,IGN,13402M007,EXTERNAL H-MASER,Real Instituto y Observatorio de la Armada,2
ROCK00USA,US,SEPT POLARX5,TWIVC6150,SCIS,GPS+GLO+GAL+SBAS,34.235675,-118.6764306,553.39,-2533220.219,-4631543.399,3568400.542,ROBOT,IGS,CDDIS,40478M002,INTERNAL,USGS,3
ROTH00ATA,AQ,LEICA GRX1200+GNSS,LEIAR25,LEIT,GPS+GLO,-67.57140219,-68.12574625,39.793,909246.711,-2264763.494,-5873056.98,ROBOT,IGS,BKG,66007M003,INTERNAL,Newcastle University,77
SALU00BRA,BR,TRIMBLE NETR9,TRM115000.00,NONE,GPS+GLO+GAL+BDS,-2.593458333,-44.21247778,18.9,4566947.87,-4443098.5,-286674.66,ROBOT,IGS14 / IGS14 Core / IGS20 / IGS / RTS / IGS Multi-GNSS,CDDIS,41640M001,INTERNAL QUARTZ,Instituto Brasileiro de Geografia e Estatística,2
SAMO00WSM,WS,SEPT POLARX5,JAVRINGANT_DM,NONE,GPS+GLO+GAL+BDS+QZSS+IRNSS,-13.84921111,-171.7384194,76.9,-6129702.256,-890029.4165,-1516807.442,ROBOT,IGS / IGS Multi-GNSS / RTS,GA,50603M001,INTERNAL,Geoscience Australia,2
SANT00CHL,CL,SEPT POLARX5,JAVRINGANT_DM,NONE,GPS+GLO+GAL+BDS,-33.15028781,-70.66855347,723.0746,1769693.588,-5044574.184,-3468320.907,ROBOT,IGS08 / IGS14 Core / IGS14 / IGS20 / IGS / IGS Multi-GNSS / RTS,JPL,41705M003,INTERNAL,Jet Propulsion Laboratory,2
SASK00CAN,CA,JAVAD TRE_G3TH DELTA,NOV750.R4,NOVS,GPS+GLO+GAL,52.19625556,-106.3983528,580,-1106129.71,-3758704.03,5016675.77,ROBOT,IGS20 / IGS / IGS Multi-GNSS / RTS,CDDIS,40167M001,INTERNAL,Natural Resources Canada,2
SAVO00BRA,BR,TRIMBLE NETR9,TRM115000.00,NONE,GPS+GLO+GAL+BDS,-12.93924683,-38.43225372,76.3,4870283.75,-3864605.309,-1418872.482,ROBOT,IGS14 / IGS14 Core / IGS20 / IGS / RTS / IGS Multi-GNSS,CDDIS,41643M001,INTERNAL QUARTZ,Instituto Brasileiro de Geografia e Estatística,2
SBOK00ZAF,ZA,TRIMBLE ALLOY,ASH701941.B,SCIS,GPS+GLO,-29.66932222,17.87920833,1043.1,5279492.017,1703114.275,-3139092.992,ROBOT,IGS20 / IGS,ftp://igs.ign.fr/,30320M001,INTERNAL,National Geospatial Information,32
SCH200CAN,CA,JAVAD TRE_3N DELTA,ASH701945E_M,NONE,GPS+GLO+GAL,54.8321,-66.8326,498.2,1448636.93,-3385243.67,5191046.95,ROBOT,IGS08 / IGS08 Core / IGS14 / IGS20 / IGS14 Core / IGS Multi-GNSS / IGS / RTS,CDDIS,40133M002,INTERNAL,Natural Resources Canada,2
SCIP00USA,US,TPS NET-G3A,TPSCR.G3,SCIS,GPS+GLO,32.91,-118.49,452.87,-2556587.44,-4711014.03,3446241.4,ROBOT,IGS,Scripps Orbit and Permanent Array Center,49915M001,INTERNAL,Scripps Orbit and Permanent Array Center,2
SCOR00GRL,GL,SEPT POLARX5,LEIAR20,LEIM,GPS+GLO+GAL+BDS+QZSS,70.48533333,-21.95033611,128.5,1982096.1,-798821.025,5989464.5,ROBOT,IGS08 / IGS14 / IGS14 Core / IGS20 / IGS / IGS Multi-GNSS,CDDIS,43006M002,EXTERNAL RUBIDIUM,DTU Space,2
SCRZ00BOL,Bolivia (Plurinational State),LEICA GR10,LEIAR10,NONE,GPS+GLO+GAL+BDS+SBAS,-17.79679167,-63.15967778,442.2,2743005.924,-5420745.291,-1937117.112,ROBOT,IGS20 / RTS / IGS Multi-GNSS / IGS,IGM+ Bolivia,41801M001,INTERNAL,Deutsches Geodaetisches Forschungsinstitut,2
SCTB00ATA,AQ,TRIMBLE ALLOY,TRM115000.00,NONE,GPS+GLO+GAL+BDS+QZSS,-77.84898611,166.7580139,-18.9,-1311028.8,308512.8,-6213390.9,ROBOT,IGS20 / IGS / IGS Multi-GNSS / RTS,CDDIS,66071M001,INTERNAL,GNS Science,2
SCUB00CUB,CU,JAVAD TRE_G3TH DELTA,JAV_RINGANT_G3T,NONE,GPS+GLO+GAL,20.01206667,-75.76231389,21.9,1474538.176,-5811243.38,2168958.813,CHAMBER,IGS08 / IGS08 Core / IGS14 / IGS14 Core / IGS20 / IGS / IGS Multi-GNSS,CDDIS,40701M001,INTERNAL,GeoForschungsZentrum,19
SEJN00KOR,KR,TRIMBLE NETR9,TRM59800.00,SCIS,GPS+GLO+GAL,36.52221111,127.3031917,181.196,-3110081.801,4082093.983,3775023.519,ROBOT,IGS,NONE,23907M001,INTERNAL,National Geographic Information Institute,2
SEY200SYC,SC,SEPT POLARX5,JAVRINGANT_DM,SCIS,GPS+GLO+GAL+BDS,-4.673651247,55.47945356,538.8156,3602867.339,5238179.381,-516268.0725,ROBOT,IGS / RTS / IGS Multi-GNSS,JPL,39801M006,INTERNAL,Jet Propulsion Laboratory,2
SEYG00SYC,SC,SEPT POLARX5,TRM59800.00,NONE,GPS+GLO+GAL+BDS+IRNSS+SBAS,-4.678731829,55.53063053,-37.085,3597836,5240884,-516781,ROBOT,IGS20 / IGS / IGS Multi-GNSS / RTS,IGN,39801M004,INTERNAL,Centre National d'Etudes Spatiales,2
SFDM00USA,US,SEPT POLARX5,TRM59800.99,SCIT,GPS+GLO+GAL+BDS+SBAS,34.45980556,-118.7545056,291.52,-2532676.407,-4615598.859,3588781.33,ROBOT,IGS / RTS / IGS Multi-GNSS,CDDIS,49826M001,INTERNAL,UNAVCO,2
SFER00ESP,ES,LEICA GR30,LEIAR25,NONE,GPS+GLO+GAL+BDS+SBAS,36.46434444,-6.205647222,84.1,5105519.055,-555146.005,3769803.246,ROBOT,IGS08 / IGS14 / IGS14 Core / IGS20 / IGS / IGS Multi-GNSS,BKG,13402M004,EXTERNAL CESIUM,Real Instituto y Observatorio de la Armada,2
SGOC00LKA,LK,JAVAD TRE_3,JAVRINGANT_G5T,NONE,GPS+GLO+GAL+BDS+QZSS+IRNSS+SBAS,6.892075,79.87417778,-78.5,1113280.061,6233644.289,760276.9549,ROBOT,IGS20 / IGS Multi-GNSS / RTS / IGS,CDDIS,23501M003,INTERNAL,GeoForschungsZentrum,2
SGPO00USA,US,JAVAD TRE_3S,JAVRINGANT_G5T,NONE,GPS+GLO+GAL+BDS+SBAS,36.60418333,-97.48482222,290.2,-667801.1647,-5082858.388,3782394.883,ROBOT,IGS / IGS Multi-GNSS / RTS,CDDIS,49368M001,INTERNAL,GeoForschungsZentrum,2
SHAO00CHN,CN,ASHTECH UZ-12,AOAD/M_T,JPLA,GPS,31.09964217,121.2004449,22.0901,-2831733.583,4675665.958,3275369.41,,IGS08 / IGS14 / IGS20 / IGS14 Core / IGS,JPL (ODC-Operational Data Center),21605M002,INTERNAL,Jet Propulsion Laboratory+ Shanghai Astronomical Observatory,2
SHE200CAN,CA,TRIMBLE NETR8,TRM29659.00,NONE,GPS,46.22069083,-64.55201,-15.3,1899507.99,-3991722.36,4582242.82,ROBOT,IGS,CDDIS,40169M002,INTERNAL,NRCan+ Geodetic Survey Division,2
SHLG00IND,IN,TRIMBLE ALLOY,LEIAR25.R3,NONE,GPS+GLO+GAL+BDS+QZSS+IRNSS+SBAS,25.67395,91.91329722,1007.2,-192075.209,5749765.124,2746987.544,ROBOT,IGS / IGS Multi-GNSS,GA,22314M001,,ISTRAC,2
SIN100SGP,SG,TRIMBLE NETR9,LEIAR25.R3,LEIT,GPS+GLO+GAL+BDS+QZSS+SBAS,1.342981111,103.6794383,92.54,-1507972.56,6195614.06,148488,ROBOT,IGS20 / IGS Multi-GNSS / IGS / RTS,BKG,22601M003,INTERNAL,DLR German Space Operations Center,2
SMST00JPN,JP,TRIMBLE NETR9,TRM57971.00,NONE,GPS,33.57785528,135.9369553,97.536,-3822373.395,3699359.882,3507585.789,ROBOT,IGS20 / IGS,CDDIS,21726M001,EXTERNAL NONE,Hydrographic and Oceanographic Department+ Japan C,8
SNI100USA,US,TPS NET-G3A,TPSCR.G3,SCIS,GPS+GLO,33.247875,-119.5243639,239.67,-2631346.823,-4646278.711,3477113.376,ROBOT,IGS,CDDIS,49909S001,INTERNAL,USGS,
SOD300FIN,FI,JAVAD TRE_3 DELTA,JAVRINGANT_DM,SCIS,GPS+GLO+GAL+BDS+SBAS,67.42078611,26.38928611,300.8,2200149.224,1091650.85,5866868.645,ROBOT,IGS / IGS Multi-GNSS / RTS,BKG,10513M002,INTERNAL,Finnish Geodetic Institute,2
SOFI00BGR,BG,LEICA GR50,LEIAR25.R3,LEIT,GPS+GLO+GAL+BDS+SBAS,42.55609167,23.39472778,1119.6,4319372.39,1868687.57,4292063.8,ROBOT,IGS08 / IGS14 / IGS20 / IGS / IGS Multi-GNSS / RTS,BKG,11101M002,INTERNAL,Bundesamt fuer Kartographie und Geodaesie,2
SOLO00SLB,SB,SEPT POLARX5,JAVRINGANT_DM,NONE,GPS+GLO+GAL+BDS+QZSS+IRNSS,-9.434922222,159.9543444,122.9,-5911340.124,2156887.299,-1038664.005,ROBOT,IGS20 / IGS / IGS Multi-GNSS / RTS,GA,51202M001,INTERNAL,Geoscience Australia,2
SPK100USA,US,SEPT POLARX5,TWIVC6150,SCIS,GPS+GLO+GAL+SBAS,34.05934167,-118.6461611,440.13,-2535991.936,-4642434.963,3552148.261,ROBOT,IGS,CDDIS,40458M001,INTERNAL,USGS,3
SPT000SWE,SE,SEPT POLARX5TR,TRM59800.00,OSOD,GPS+GLO+GAL+BDS+SBAS,57.71495556,12.89134444,219.9,3328984.813,761910.066,5369033.475,,IGS Multi-GNSS / IGS / RTS,BKG,10425M001,EXTERNAL H-MASER,Lantmateriet the Swedish mapping authority,2
SPTU00BRA,BR,TRIMBLE NETR9,TRM57971.00,NONE,GPS+GLO+GAL+BDS,-21.92911667,-50.49236944,508.78,3766123.31,-4567433.46,-2367323.83,ROBOT,IGS Multi-GNSS / IGS,CDDIS,48085M001,INTERNAL,Universidade Estadual Paulista+ Instituto Brasileiro de Geografia e Estatística,2
SSIA00SLV,SV,TRIMBLE NETR9,TRM59800.80,SCIS,GPS+GLO+GAL,13.6973,-89.1162,664.4,95610.0615,-6197817.152,1500617.941,COPIED,IGS08 / RTS / IGS,CDDIS,41401S001,INTERNAL,Centro Nacional de Registros,2
STFU00USA,United States,JAVAD TRE_G3TH DELTA,TRM57971.00,NONE,GPS+GLO+GAL+SBAS,37.42690694,-122.1732908,20.41,-2700404.18,-4292605.52,3855137.41,ROBOT,IGS Multi-GNSS / IGS / RTS,BKG,49430S001,EXTERNAL RUBIDIUM,DLR Institute of Communication and Navigation,2
STHL00GBR,United Kingdom,JAVAD TRE_3 DELTA,TPSCR.G3,SCIS,GPS+GLO+GAL+BDS,-15.94253386,-5.667345444,453.29,6104817.308,-605827.996,-1740738.865,ROBOT,IGS14 Core / IGS14 / IGS20 / IGS / IGS Multi-GNSS / RTS,JPL,30606M003,INTERNAL,Jet Propulsion Laboratory,2
STJ300CAN,CA,SEPT POLARX5TR,LEIAR25.R4,NONE,GPS+GLO+GAL+BDS+SBAS,47.59543514,-52.67830776,154.515,2612588.671,-3426820.64,4686773.756,ROBOT,IGS20 / IGS Multi-GNSS / IGS / RTS,IGN,40101M005,EXTERNAL T4Science VCH-1008 passive maser,Centre National d'Etudes Spatiales+ Natural Resources Canada,2
STJO00CAN,CA,JAVAD TRE_3N DELTA,AOAD/M_T,NONE,GPS+GLO+GAL,47.59523889,-52.67774722,152.8,2612631.2,-3426807,4686757.8,ROBOT,IGS08 / IGS08 Core / IGS14 Core / IGS14 / IGS20 / IGS / RTS / IGS Multi-GNSS,CDDIS,40101M001,EXTERNAL H-MASER,Natural Resources Canada,2
STK200JPN,JP,TRIMBLE ALLOY,TRM59800.00,SCIS,GPS+GLO+GAL+QZSS,43.52864444,141.8448194,118.54,-3642161.206,2861487.883,4370351.333,ROBOT,IGS20 / IGS / IGS Multi-GNSS,CDDIS,21731S004,EXTERNAL CESIUM,Geospatial Information Authority of Japan,2
STPM00SPM,FR,TRIMBLE NETR9,TRM57971.00,NONE,GPS+GLO+GAL+BDS+SBAS,46.77782379,-56.16824438,0.473,2436208.256,-3634804.894,4624885.452,ROBOT,IGS20 / IGS / IGS Multi-GNSS / RTS,IGN,97501M005,INTERNAL,Institut National de l'Information Geographique et,
STR100AUS,AU,SEPT POLARX5,ASH701945C_M,NONE,GPS+GLO+GAL+BDS+QZSS+IRNSS,-35.315525,149.0100556,799.9,-4467103.193,2683039.475,-3666948.746,ROBOT,IGS / IGS Multi-GNSS / RTS,GA,50119M002,EXTERNAL CESIUM,Geoscience Australia,2
STR200AUS,AU,TRIMBLE ALLOY,LEIAR25.R3,NONE,GPS+GLO+GAL+BDS+QZSS,-35.31615278,149.0101583,802.5,-4467075.235,2683011.847,-3667007.041,ROBOT,IGS / IGS Multi-GNSS / RTS,GA,50119M001,INTERNAL,Geoscience Australia,2
SULP00UKR,UA,TRIMBLE NETR9,TPSCR.G5,TPSH,GPS+GLO+GAL+BDS+SBAS,49.83558889,24.01448889,370.5,3765296.991,1677559.204,4851297.409,ROBOT,IGS20 / IGS / IGS Multi-GNSS / RTS,BKG,12366M001,INTERNAL,Lviv Polytechnic National University,2
SUTH00ZAF,ZA,SEPT POLARX5,ASH701945G_M,NONE,GPS+GLO+GAL+BDS,-32.38021083,20.81046231,1799.7659,5041274.842,1916054.12,-3397075.972,ROBOT,IGS08 / IGS08 Core / IGS14 Core / IGS14 / IGS20 / IGS / IGS Multi-GNSS / RTS,JPL,30314M002,INTERNAL,Jet Propulsion Laboratory,2
SUTM00ZAF,ZA,JAVAD TRE_3,JAVRINGANT_G5T,NONE,GPS+GLO+GAL+BDS+IRNSS+SBAS,-32.38143611,20.81091111,1797.6,5041190.169,1916067.017,-3397189.514,ROBOT,IGS08 / IGS14 / IGS20 / IGS14 Core / IGS / IGS Multi-GNSS / RTS,CDDIS,30314M004,INTERNAL,GeoForschungsZentrum,2
SUWN00KOR,KR,TRIMBLE NETR9,TRM59800.80,SCIS,GPS+GLO+GAL,37.2755,127.0542,83.9322,-3062023.416,4055449.166,3841819.377,COPIED,IGS08 / IGS14 / IGS14 Core / IGS20 / IGS / RTS,CDDIS,23903M001,EXTERNAL CESIUM,National Geographic Information Institute,2
SVTL00RUS,Russian Federation,JAVAD TRE_3 DELTA,JAVRINGANT_DM,JVDM,GPS+GLO+GAL,60.53285556,29.78087222,76.8,2730156,1562365,5529989,ROBOT,IGS20 / IGS / IGS Multi-GNSS,BKG,12350M001,EXTERNAL H-MASER CH1-80,Institute of Applied Astronomy RAS,2
SYDN00AUS,AU,SEPT POLARX5TR,ASH701945C_M,NONE,GPS+GLO+GAL+BDS+QZSS,-33.78087222,151.1503833,85.6,-4648240.847,2560636.441,-3526317.777,ROBOT,IGS14 / IGS14 Core / IGS20 / IGS / IGS Multi-GNSS / RTS,GA,50124M003,EXTERNAL CESIUM,Geoscience Australia,2
SYOG00ATA,AQ,TRIMBLE ALLOY,TRM159900.00,SCIS,GPS+GLO+GAL+QZSS,-69.007,39.5837,50.0902,1766207.869,1460290.38,-5932297.765,ROBOT,IGS08 / IGS08 Core / IGS14 / IGS20 / IGS14 Core / IGS / IGS Multi-GNSS / RTS,CDDIS,66006S002,EXTERNAL CESIUM,Geospatial Information Authority of Japan,2
TABL00USA,US,TRIMBLE NETR9,TRM57971.00,NONE,GPS+GLO+SBAS,34.38185,-117.6782833,2228.03,-2448550.113,-4668099.077,3582741.024,ROBOT,IGS,CDDIS,49901M001,INTERNAL,USGS,61
TANA00ETH,ET,LEICA GR25,LEIAR25.R4,LEIT,GPS+GLO,11.56907157,37.32910592,1850.9624,4970747.778,3790687.113,1271109.038,ROBOT,IGS,CDDIS,31508M001,INTERNAL,Institute of Land Administration Bahir Dar Univers,
TASH00UZB,UZ,SEPT ASTERX4,SEPCHOKE_B3E6,NONE,GPS+GLO+GAL+BDS+QZSS+IRNSS+SBAS,41.32805,69.29556667,439.7,1695945.199,4487138.568,4190140.693,ROBOT,IGS14 / IGS14 Core / IGS / IGS Multi-GNSS / RTS,CDDIS,12327M001,EXTERNAL RUBIDIUM,GeoForschungsZentrum,2
TCMS00TWN,TW,TRIMBLE NETR9,LEIAT504,NONE,GPS,24.79798608,120.9873891,77.2607,-2982782.854,4966660.159,2658809.459,ROBOT,IGS08 / IGS14 / IGS20 / IGS14 Core / IGS,SIO,23604S002,INTERNAL,National Measurement Laboratory,15
TDOU00ZAF,ZA,TRIMBLE ALLOY,LEIAT504,LEIS,GPS+GLO,-23.07990833,30.38400556,630.2,5064840.831,2969624.419,-2485110.043,ROBOT,IGS,ftp://igs.ign.fr/,30319M001,INTERNAL,National Geospatial Information,2
TEHN00IRN,IRAN,HI-TARGET VNET8,HITAT45101CP,HITZ,GPS+GLO,35.69728056,51.33409167,1194.57,3240499.403,4049740.323,3701663.005,ROBOT,IGS08 / IGS14 / IGS,CDDIS,20404M002,INTERNAL,National Cartographic Center of Iran,
THTG00PYF,PF,SEPT POLARX5TR,LEIAR25.R3,LEIT,GPS+GLO+GAL+BDS+QZSS+SBAS,-17.57706028,-149.6064384,97.994,-5246414,-3077260,-1913842,ROBOT,IGS20 / IGS Multi-GNSS / RTS / IGS,IGN,92201M016,EXTERNAL CESIUM,Centre National d'Etudes Spatiales,2
THTI00PYF,PF,TRIMBLE NETR9,ASH701945E_M,NONE,GPS+GLO+GAL+BDS+SBAS,-17.57705844,-149.606445,98.49,-5246415.813,-3077260.634,-1913841.97,ROBOT,IGS08 / IGS08 Core / IGS14 Core / IGS14 / IGS20 / IGS / IGS Multi-GNSS / RTS,IGN,92201M009,INTERNAL,Centre National d'Etudes Spatiales,2
THU200GRL,GL,SEPT POLARX5,ASH701073.1,SCIS,GPS+GLO+GAL+BDS+QZSS,76.53704722,-68.82505,36.2,538093.193,-1389088.13,6180979.36,ROBOT,IGS20 / IGS / IGS Multi-GNSS,CDDIS,43001M002,INTERNAL,DTU Space,2
TID100AUS,AU,SEPT POLARX5,AOAD/M_T,NONE,GPS+GLO+GAL+BDS+QZSS,-35.39919722,148.98,665.3,-4460996.95,2682557.08,-3674442.627,ROBOT,IGS14 Core / IGS14 / IGS20 / IGS / IGS Multi-GNSS / RTS,GA,50103M108,EXTERNAL H-MASER,Geoscience Australia,2
TIDB00AUS,AU,ASHTECH UZ-12,AOAD/M_T,NONE,GPS,-35.39920556,148.9799972,665.3719,-4460996.405,2682557.089,-3674443.393,ROBOT,IGS08 / IGS08 Core / IGS14 Core / IGS14 / IGS20 / IGS,JPL,50103M108,EXTERNAL H-MASER,Jet Propulsion Laboratory,2
TIT200DEU,DE,JAVAD TRE_3 DELTA,LEIAR25.R4,LEIT,GPS+GLO+GAL+BDS+SBAS,51.03523333,6.431580556,156.1,3993787.1,450204.2,4936131.8,ROBOT,IGS / IGS Multi-GNSS / RTS,BKG,14278M002,INTERNAL,Bundesamt fuer Kartographie und Geodaesie,2
TIXI00RUS,Russian Federation,JPS EGGDT,TPSCR3_GGD,NONE,GPS+GLO,71.634475,128.8664139,46.9847,-1264872.963,1569455.814,6031003.388,ROBOT,IGS08 / IGS08 Core / IGS14 / IGS20 / IGS,,12360M001,INTERNAL,RDAAC,
TLSE00FRA,FR,TRIMBLE ALLOY,TRM59800.00,NONE,GPS+GLO+GAL+BDS+IRNSS+SBAS,43.56069444,1.480872222,207.2,4627851.899,119638.546,4372993.537,ROBOT,IGS08 / IGS14 / IGS20 / IGS / IGS Multi-GNSS / RTS,IGN,10003M009,INTERNAL,Centre National d'Etudes Spatiales,2
TLSG00FRA,FR,SEPT POLARX5TR,TRM59800.00,NONE,GPS+GLO+GAL+BDS+IRNSS+SBAS,43.54970833,1.485036111,208.7,4628685.095,119996.724,4372110.007,ROBOT,IGS / IGS Multi-GNSS / RTS,IGN,10003M034,EXTERNAL CESIUM,Centre National d'Etudes Spatiales,2
TNML00TWN,TW,TRIMBLE NETR9,TRM115000.00,NONE,GPS+GLO+GAL,24.79795492,120.9873441,75.8599,-2982779.039,4966662.655,2658805.738,ROBOT,IGS08 / IGS08 Core / IGS14 Core / IGS14 / IGS20 / IGS,SIO,23604S001,EXTERNAL RUBIDIUM,National Measurement Laboratory,15
